id,rate_avg_kg_hr,rate_detected_kg_hr,plume_count,timestamp_min,timestamp_max,latitude,longitude,nearest_well_api,nearest_well_operator,purchaser_names,distance_to_nearest_well_km,total_wells_within_500m,operator_wells_within_500m,confidence_score,lng_sellers,lng_projects,lng_match_count,max_similarity
CH4_1B2_250m_-103.89468_31.86889,12.22172500476683,415.54,1,2025-08-27,2025-08-27,31.86889,-103.89468,389-34315,BPX OPERATING COMPANY,"[139683] CASTLETON COMMOD MERCH TRDG L.P.; [698769] REGENCY FIELD SERVICES LLC; [153428] CIMA ENERGY, LTD.; [252017] ENERGY TRANSFER COMPANY; [85349] BP ENERGY CO.",0.13,2,1,63.0,"CIMA Energy, LP (0.951); BP Energy Company (0.926); BP Energy Company (0.926); BP Energy Company (0.926); Castleton Commodities Merchant Trading L.P. (0.924); Castleton Commodities Merchant Trading L.P. (0.924); Cimarex Energy Co. (0.882)",Sabine Pass; Calcasieu Pass; Freeport LNG; Corpus Christi,4,0.951
CH4_1B2_250m_-103.84612_31.89891,14.955820074471701,216.86,2,2021-08-07,2025-08-27,31.89891,-103.84612,301-31198,"WPX ENERGY PERMIAN, LLC","[144535] CHAPARRAL ENERGY, L.L.C.; [148113] CHEVRON U. S. A. INC.; [509364] LOUIS DREYFUS ENERGY SERVICES LP; [558223] MEDALLION DELAWARE BASIN, LLC",0.16,4,4,85.7,"Chevron U.S.A. Inc (""Chevron"") (0.866)",Corpus Christi,1,0.866
CH4_1B2_250m_-99.22104_28.18256,834.6294400887514,3755.83,2,2025-08-18,2025-08-25,28.18256,-99.22104,283-31017,"LEWIS PETRO PROPERTIES, INC.","[253329] ENTERPRISE HYDROCARBONS, L.P.; [142001] CERRITO PIPELINE MANAGEMENT, INC; [638155] PANHANDLE GAS COMPANY; [238360] EAGLE ENERGY DEVELOPMENT CO; [864440] TRANSCONTINENTAL GAS P.L. CORP.; [238684] EAGLE NATURAL GAS PIPELINE CORP.; [864444] TRANSCONTINENTAL GAS P.L. CO,LLC; [253368] ENTERPRISE PRODUCTS OPERATINGLLC; [404550] HOUSTON PIPE LINE COMPANY",0.13,3,1,54.8,"Enterprise Products Operating LLC (0.994); Houston Pipe Line Company, LP (0.972); Houston Pipe Line Company LP (""HPL"") (0.939); Houston Pipe Line Company LP (""HPL"") (0.939); Enterprise Products Operating LLC (0.855)",Corpus Christi; Sabine Pass; Freeport LNG,3,0.994
CH4_1B2_250m_-99.22733_28.19447,170.38941305867579,1363.12,1,2025-08-25,2025-08-25,28.19447,-99.22733,283-30938,SILVER PINES ENERGY CORP.,"[142001] CERRITO PIPELINE MANAGEMENT, INC; [238684] EAGLE NATURAL GAS PIPELINE CORP.; [223422] DORAN ENERGY CORPORATION; [404550] HOUSTON PIPE LINE COMPANY; [638155] PANHANDLE GAS COMPANY; [238360] EAGLE ENERGY DEVELOPMENT CO; [864440] TRANSCONTINENTAL GAS P.L. CORP.",0.41,1,1,71.0,"Houston Pipe Line Company, LP (0.972); Houston Pipe Line Company LP (""HPL"") (0.939); Houston Pipe Line Company LP (""HPL"") (0.939)",Sabine Pass; Corpus Christi,2,0.972
CH4_1B2_250m_-103.63677_31.72346,60.787397362938606,230.99,6,2019-10-11,2025-08-22,31.72346,-103.63677,301-33035,APACHE CORPORATION,[252017] ENERGY TRANSFER COMPANY; [100883] ET GATHERING & PROCESSING LLC,0.4,4,4,68.7,Apache Corporation (1.0); Apache Corporation (1.0),Corpus Christi; CCL Stage III,1,1.0
CH4_1B2_250m_-101.77232_31.84494,1352.7786278058688,1803.7,47,2019-10-18,2025-08-13,31.84494,-101.77232,173-31036,"OXYROCK OPERATING, LLC","[252017] ENERGY TRANSFER COMPANY; [601188] NAVITAS MDSTR MIDLAND BASIN, LLC; [836041] TARGA PL MID-CONT WESTTEX LLC; [661637] PHILLIPS 66 NATURAL GAS COMPANY; [319471] GPM GAS CORPORATION; [100348] ENT NAVITAS MDSTRM MDLND BAS LLC; [663680] PHILLIPS PETROLEUM COMPANY; [195918] DCP MIDSTREAM, LP; [102545] ENTERPRISE M B MIDSTREAM LLC",0.13,5,4,78.1,Enterprise Products Operating LLC (0.86),Freeport LNG,1,0.86
CH4_1B2_250m_-101.70094_31.89023,328.75877998932395,547.93,3,2024-10-01,2025-08-13,31.89023,-101.70094,173-36480,"PIONEER NATURAL RES. USA, INC.","[36586] ATLAS PL MID-CONT. WESTTEX, LLC; [836041] TARGA PL MID-CONT WESTTEX LLC",0.38,2,2,70.5,"Pioneer Natural Resources USA, Inc. (0.945)",Corpus Christi,1,0.945
CH4_1B2_250m_-101.77651_31.90943,87.96024878563539,322.52,15,2023-08-24,2025-08-13,31.90943,-101.77651,329-40447,"CIVITAS PERMIAN OPERATING, LLC","[601188] NAVITAS MDSTR MIDLAND BASIN, LLC; [253368] ENTERPRISE PRODUCTS OPERATINGLLC; [100348] ENT NAVITAS MDSTRM MDLND BAS LLC",0.11,17,16,79.2,Enterprise Products Operating LLC (0.994),Freeport LNG,1,0.994
CH4_1B2_250m_-101.78876_31.73291,131.77399292837785,187.26,29,2020-07-18,2025-08-13,31.73291,-101.78876,329-32572,"PIONEER NATURAL RES. USA, INC.","[913450] WGR, INC.; [572390] MOBIL NATURAL GAS INC.; [36586] ATLAS PL MID-CONT. WESTTEX, LLC",0.44,2,1,41.1,"Pioneer Natural Resources USA, Inc. (0.945)",Corpus Christi,1,0.945
CH4_1B2_250m_-101.73296_31.89715,14.062606211876187,182.81,2,2025-07-30,2025-08-13,31.89715,-101.73296,173-35978,"PIONEER NATURAL RES. USA, INC.","[36586] ATLAS PL MID-CONT. WESTTEX, LLC; [836041] TARGA PL MID-CONT WESTTEX LLC",0.39,3,2,53.4,"Pioneer Natural Resources USA, Inc. (0.945)",Corpus Christi,1,0.945
CH4_1B2_250m_-103.21906_31.43250,268.499356957156,429.6,5,2024-11-26,2025-08-08,31.4325,-103.21906,475-36820,"VITAL ENERGY, INC.","[836039] TARGA PERMIAN LP; [836037] TARGA MIDSTREAM SERVICES LLC; [744276] SALT CREEK MIDSTREAM, LLC",0.04,7,7,89.9,Targa Gas Marketing LLC (0.854),Corpus Christi,1,0.854
CH4_1B2_250m_-101.82000_32.32694,648.9170901399908,1514.14,18,2023-07-31,2025-08-06,32.32694,-101.82,317-42332,XTO ENERGY INC.,"[252017] ENERGY TRANSFER COMPANY; [945227] WTG GAS PROCESSING, L.P.",0.37,8,5,48.0,"XTO Energy Inc. (f/k/a Cross Timbers Energy Services, Inc.) (0.851)",Corpus Christi,1,0.851
CH4_1B2_250m_-101.90420_32.24326,390.9360569055546,521.25,47,2019-10-18,2025-08-06,32.24326,-101.9042,317-41283,"PIONEER NATURAL RES. USA, INC.","[945218] WTG NORTH PERMIAN MIDSTREAM LLC; [945227] WTG GAS PROCESSING, L.P.; [102493] ETC NORTH PERMIAN MIDSTREAM LLC",0.5,5,5,62.0,"Pioneer Natural Resources USA, Inc. (0.945)",Corpus Christi,1,0.945
CH4_1B2_250m_-101.82394_32.09121,234.60548560438582,368.67,27,2021-07-26,2025-08-06,32.09121,-101.82394,317-33933,"PIONEER NATURAL RES. USA, INC.","[36586] ATLAS PL MID-CONT. WESTTEX, LLC; [663680] PHILLIPS PETROLEUM COMPANY; [913450] WGR, INC.; [661637] PHILLIPS 66 NATURAL GAS COMPANY; [319471] GPM GAS CORPORATION; [836041] TARGA PL MID-CONT WESTTEX LLC",0.3,2,1,51.3,"Pioneer Natural Resources USA, Inc. (0.945)",Corpus Christi,1,0.945
CH4_1B2_250m_-101.72809_31.94170,887.4960154624615,1065.0,5,2023-12-01,2025-07-30,31.9417,-101.72809,173-33526,XTO ENERGY INC.,"[36586] ATLAS PL MID-CONT. WESTTEX, LLC; [36584] ATLAS PIPELINE MID-CONTINENT LLC; [836041] TARGA PL MID-CONT WESTTEX LLC; [252017] ENERGY TRANSFER COMPANY",0.4,8,7,58.5,"XTO Energy Inc. (f/k/a Cross Timbers Energy Services, Inc.) (0.851)",Corpus Christi,1,0.851
CH4_1B2_250m_-101.79675_31.91426,61.17396006567326,1009.37,2,2024-12-27,2025-07-30,31.91426,-101.79675,329-31567,"PIONEER NATURAL RES. USA, INC.","[661637] PHILLIPS 66 NATURAL GAS COMPANY; [319471] GPM GAS CORPORATION; [836041] TARGA PL MID-CONT WESTTEX LLC; [36586] ATLAS PL MID-CONT. WESTTEX, LLC; [663680] PHILLIPS PETROLEUM COMPANY; [913450] WGR, INC.",0.24,3,3,80.1,"Pioneer Natural Resources USA, Inc. (0.945)",Corpus Christi,1,0.945
CH4_1B2_250m_-101.78398_31.83248,250.98305142791983,721.58,11,2021-10-04,2025-07-30,31.83248,-101.78398,329-32064,"PIONEER NATURAL RES. USA, INC.","[195918] DCP MIDSTREAM, LP; [230719] DUKE ENERGY FIELD SERVICES, LP; [319471] GPM GAS CORPORATION; [319468] GPM GAS COMPANY, LLC; [661637] PHILLIPS 66 NATURAL GAS COMPANY",0.28,2,2,77.2,"Pioneer Natural Resources USA, Inc. (0.945)",Corpus Christi,1,0.945
CH4_1B2_250m_-101.79889_31.73629,282.8523874045258,525.3,25,2020-07-18,2025-07-30,31.73629,-101.79889,329-32667,"PIONEER NATURAL RES. USA, INC.","[913450] WGR, INC.; [877060] UNION TEXAS PETROLEUM CORP.; [663680] PHILLIPS PETROLEUM COMPANY; [877066] UNION TEXAS PRODUCTS CORPORATION; [36586] ATLAS PL MID-CONT. WESTTEX, LLC; [836041] TARGA PL MID-CONT WESTTEX LLC; [250300] EL PASO NATURAL GAS COMPANY; [661637] PHILLIPS 66 NATURAL GAS COMPANY; [911905] WESTERN GAS PROCESSORS, LTD.",0.19,4,4,83.9,"Pioneer Natural Resources USA, Inc. (0.945)",Corpus Christi,1,0.945
CH4_1B2_250m_-101.74676_31.94553,11.066333841150115,331.99,1,2025-07-30,2025-07-30,31.94553,-101.74676,173-33614,XTO ENERGY INC.,"[252017] ENERGY TRANSFER COMPANY; [836041] TARGA PL MID-CONT WESTTEX LLC; [36586] ATLAS PL MID-CONT. WESTTEX, LLC; [36584] ATLAS PIPELINE MID-CONTINENT LLC",0.46,1,1,68.0,"XTO Energy Inc. (f/k/a Cross Timbers Energy Services, Inc.) (0.851)",Corpus Christi,1,0.851
CH4_1B2_250m_-101.74906_31.85215,NULL,NULL,1,2025-07-30,2025-07-30,31.85215,-101.74906,173-31492,"PIONEER NATURAL RES. USA, INC.","[836041] TARGA PL MID-CONT WESTTEX LLC; [913450] WGR, INC.; [230719] DUKE ENERGY FIELD SERVICES, LP; [36586] ATLAS PL MID-CONT. WESTTEX, LLC",0.06,19,1,38.4,"Pioneer Natural Resources USA, Inc. (0.945)",Corpus Christi,1,0.945
CH4_1B2_250m_-102.02824_31.79520,454.5720238074872,702.52,14,2021-08-08,2025-07-23,31.7952,-102.02824,329-35111,DIAMONDBACK E&P LLC,"[913450] WGR, INC.; [148113] CHEVRON U. S. A. INC.; [36586] ATLAS PL MID-CONT. WESTTEX, LLC; [836041] TARGA PL MID-CONT WESTTEX LLC",0.4,1,1,71.7,"Chevron U.S.A. Inc (""Chevron"") (0.866)",Corpus Christi,1,0.866
CH4_1B2_250m_-101.86959_31.91082,19.605177517795074,627.37,1,2025-07-23,2025-07-23,31.91082,-101.86959,329-40544,"OXYROCK OPERATING, LLC","[102508] ETC SOUTH PERMIAN MIDSTREAM LLC; [836037] TARGA MIDSTREAM SERVICES LLC; [100348] ENT NAVITAS MDSTRM MDLND BAS LLC; [836041] TARGA PL MID-CONT WESTTEX LLC; [252017] ENERGY TRANSFER COMPANY; [601188] NAVITAS MDSTR MIDLAND BASIN, LLC; [253368] ENTERPRISE PRODUCTS OPERATINGLLC",0.09,33,32,82.5,Enterprise Products Operating LLC (0.994),Freeport LNG,1,0.994
CH4_1B2_250m_-101.97001_31.72243,20.81921520330735,291.47,2,2025-05-21,2025-07-23,31.72243,-101.97001,329-35082,DIAMONDBACK E&P LLC,[148113] CHEVRON U. S. A. INC.,0.11,22,4,41.3,"Chevron U.S.A. Inc (""Chevron"") (0.866)",Corpus Christi,1,0.866
CH4_1B2_250m_-102.04200_31.73168,64.48962155915973,206.37,5,2023-08-17,2025-07-23,31.73168,-102.042,329-35627,DIAMONDBACK E&P LLC,"[148113] CHEVRON U. S. A. INC.; [195918] DCP MIDSTREAM, LP; [230719] DUKE ENERGY FIELD SERVICES, LP; [836041] TARGA PL MID-CONT WESTTEX LLC",0.31,2,2,75.1,"Chevron U.S.A. Inc (""Chevron"") (0.866)",Corpus Christi,1,0.866
CH4_1B2_250m_-101.91084_31.89876,16.59492549,165.95,2,2020-07-18,2025-07-23,31.89876,-101.91084,329-37189,"PIONEER NATURAL RES. USA, INC.","[36586] ATLAS PL MID-CONT. WESTTEX, LLC; [836044] TARGA PIPELINE MID-CONTINENT LLC",0.29,4,4,76.5,"Pioneer Natural Resources USA, Inc. (0.945)",Corpus Christi,1,0.945
CH4_1B2_250m_-101.98165_32.26441,1371.1137858245809,2399.45,5,2019-10-21,2025-07-16,32.26441,-101.98165,317-40729,"PIONEER NATURAL RES. USA, INC.","[945218] WTG NORTH PERMIAN MIDSTREAM LLC; [661637] PHILLIPS 66 NATURAL GAS COMPANY; [319471] GPM GAS CORPORATION; [319468] GPM GAS COMPANY, LLC; [663680] PHILLIPS PETROLEUM COMPANY; [195918] DCP MIDSTREAM, LP; [195959] DCP OPERATING COMPANY, LP; [230719] DUKE ENERGY FIELD SERVICES, LP; [102493] ETC NORTH PERMIAN MIDSTREAM LLC",0.2,2,2,83.3,"Pioneer Natural Resources USA, Inc. (0.945)",Corpus Christi,1,0.945
CH4_1B2_250m_-103.78826_31.78059,15.690650147793209,407.96,1,2025-07-11,2025-07-11,31.78059,-103.78826,301-32244,SHELL WESTERN E&P,"[773822] SHELL ENERGY NORTH AM. (US), LP",0.03,2,2,94.8,"Shell Energy North America (US), L.P. (0.942); Shell Energy North America (US), L.P. (0.942)",Corpus Christi; Sabine Pass,1,0.942
CH4_1B2_250m_-101.88592_31.93897,357.77963663579146,1175.56,7,2020-07-15,2025-07-09,31.93897,-101.88592,329-37305,"PIONEER NATURAL RES. USA, INC.","[836041] TARGA PL MID-CONT WESTTEX LLC; [250300] EL PASO NATURAL GAS COMPANY; [913450] WGR, INC.; [36586] ATLAS PL MID-CONT. WESTTEX, LLC",0.19,6,5,71.0,"Pioneer Natural Resources USA, Inc. (0.945)",Corpus Christi,1,0.945
CH4_1B2_250m_-101.91339_32.21233,507.7102731431982,1015.42,15,2019-10-18,2025-07-09,32.21233,-101.91339,317-37214,"PIONEER NATURAL RES. USA, INC.","[945218] WTG NORTH PERMIAN MIDSTREAM LLC; [945227] WTG GAS PROCESSING, L.P.; [102493] ETC NORTH PERMIAN MIDSTREAM LLC",0.36,1,1,75.0,"Pioneer Natural Resources USA, Inc. (0.945)",Corpus Christi,1,0.945
CH4_1B2_250m_-101.72859_32.17956,113.57733424329773,908.62,2,2023-06-20,2025-07-09,32.17956,-101.72859,317-33167,"PIONEER NATURAL RES. USA, INC.","[661637] PHILLIPS 66 NATURAL GAS COMPANY; [319471] GPM GAS CORPORATION; [319468] GPM GAS COMPANY, LLC; [945218] WTG NORTH PERMIAN MIDSTREAM LLC; [195959] DCP OPERATING COMPANY, LP; [230719] DUKE ENERGY FIELD SERVICES, LP; [102493] ETC NORTH PERMIAN MIDSTREAM LLC; [663680] PHILLIPS PETROLEUM COMPANY; [195918] DCP MIDSTREAM, LP",0.2,2,1,58.3,"Pioneer Natural Resources USA, Inc. (0.945)",Corpus Christi,1,0.945
CH4_1B2_250m_-101.86857_31.97476,20.92089103027874,240.59,2,2024-10-01,2025-07-09,31.97476,-101.86857,329-34786,"PIONEER NATURAL RES. USA, INC.","[246991] EL PASO HYDROCARBONS COMPANY; [561121] MERIDIAN OIL HYDROCARBONS INC.; [836041] TARGA PL MID-CONT WESTTEX LLC; [319471] GPM GAS CORPORATION; [319468] GPM GAS COMPANY, LLC; [195918] DCP MIDSTREAM, LP; [648965] PECOS COMPANY; [17950] AMERICAN CENTRAL GAS COS. INC.; [913450] WGR, INC.; [871118] TRISTAR ENERGY COMPANY; [230719] DUKE ENERGY FIELD SERVICES, LP",0.1,18,3,41.3,"Pioneer Natural Resources USA, Inc. (0.945)",Corpus Christi,1,0.945
CH4_1B2_250m_-101.84924_31.88703,6.709889347392156,234.85,1,2025-07-09,2025-07-09,31.88703,-101.84924,329-41679,DIAMONDBACK E&P LLC,"[100348] ENT NAVITAS MDSTRM MDLND BAS LLC; [601188] NAVITAS MDSTR MIDLAND BASIN, LLC; [253368] ENTERPRISE PRODUCTS OPERATINGLLC",0.11,16,11,66.6,Enterprise Products Operating LLC (0.994),Freeport LNG,1,0.994
CH4_1B2_250m_-104.15443_31.99759,7.698538638380211,119.33,2,2019-10-11,2025-07-04,31.99759,-104.15443,109-32788,CHEVRON U. S. A. INC.,[148113] CHEVRON U. S. A. INC.,0.27,4,4,78.0,"Chevron U.S.A. Inc (""Chevron"") (0.866)",Corpus Christi,1,0.866
CH4_1B2_250m_-99.45098_28.43460,166.45833062310766,1165.21,1,2025-06-30,2025-06-30,28.4346,-99.45098,127-36942,INEOS USA OIL & GAS LLC,"[101701] INEOS ENERGY MARKETING USA LLC; [147710] CHESAPEAKE ENERGY MARKETING, INC; [147724] CHESAPEAKE ENERGY MKTG, L.L.C.",0.14,9,9,83.5,"Chesapeake Energy Marketing, LLC (0.975); Chesapeake Energy Marketing, LLC (0.949)",Sabine Pass,1,0.975
CH4_1B2_250m_-103.22874_31.51353,117.47570418841867,274.11,3,2025-03-07,2025-06-20,31.51353,-103.22874,475-34248,APACHE CORPORATION,"[28653] AQUILA SOUTHWEST PIPELINE CORP.; [154772] CLAJON GAS COMPANY; [154792] CLAJON GAS COMPANY, L.P.; [665707] PIONEER GAS PIPELINE, INC.",0.2,11,11,75.9,Apache Corporation (1.0); Apache Corporation (1.0),Corpus Christi; CCL Stage III,1,1.0
CH4_1B2_250m_-100.05069_28.42254,186.64192262798613,746.57,1,2025-06-11,2025-06-11,28.42254,-100.05069,127-38581,"GRIT OIL & GAS MANAGEMENT, LLC","[85349] BP ENERGY CO.; [878959] UPSTREAM ENERGY SERVICES; [405962] HOWARD MARKETING, LLC",0.08,9,8,81.8,BP Energy Company (0.926); BP Energy Company (0.926); BP Energy Company (0.926),Sabine Pass; Freeport LNG; Calcasieu Pass,1,0.926
CH4_1B2_250m_-100.09553_28.25401,146.6832638084818,733.42,1,2025-06-11,2025-06-11,28.25401,-100.09553,127-33774,"GRIT OIL & GAS MANAGEMENT, LLC",[85349] BP ENERGY CO.; [253368] ENTERPRISE PRODUCTS OPERATINGLLC; [845940] TEXAS GAS MARKETING LLC; [878959] UPSTREAM ENERGY SERVICES,0.11,6,5,76.7,Enterprise Products Operating LLC (0.994); BP Energy Company (0.926); BP Energy Company (0.926); BP Energy Company (0.926); Targa Gas Marketing LLC (0.862),Corpus Christi; Freeport LNG; Calcasieu Pass; Sabine Pass,3,0.994
CH4_1B2_250m_-102.18955_31.64169,31.662080946666666,237.47,2,2021-08-08,2025-05-28,31.64169,-102.18955,461-34341,"DISCOVERY OPERATING, INC.",[100348] ENT NAVITAS MDSTRM MDLND BAS LLC; [253368] ENTERPRISE PRODUCTS OPERATINGLLC; [148113] CHEVRON U. S. A. INC.; [40798] BP AMERICA PRODUCTION COMPANY,0.14,6,6,82.9,"Enterprise Products Operating LLC (0.994); Chevron U.S.A. Inc (""Chevron"") (0.866)",Freeport LNG; Corpus Christi,2,0.994
CH4_1B2_250m_-102.18897_31.56301,11.04705858829372,143.61,1,2025-05-28,2025-05-28,31.56301,-102.18897,461-32387,SM ENERGY COMPANY,"[572550] MOBIL PRODUCING TX. & N.M. INC.; [637947] PANENERGY FIELD SERVICES, INC.; [230767] DUKE ENERGY FIELD SERVICES, INC.; [230719] DUKE ENERGY FIELD SERVICES, LP; [572390] MOBIL NATURAL GAS INC.; [195959] DCP OPERATING COMPANY, LP; [230721] DUKE ENERGY FLD SRVCS ASSETS LLC; [195918] DCP MIDSTREAM, LP",0.22,3,1,48.5,BP Energy Company (0.922); BP Energy Company (0.922); BP Energy Company (0.922),Freeport LNG; Calcasieu Pass; Sabine Pass,1,0.922
CH4_1B2_250m_-102.17615_31.73272,NULL,NULL,2,2023-08-25,2025-05-28,31.73272,-102.17615,329-33913,APACHE CORPORATION,[27200] APACHE CORPORATION; [40798] BP AMERICA PRODUCTION COMPANY; [29347] ARCO PERMIAN,0.23,6,6,77.1,Apache Corporation (1.0); Apache Corporation (1.0),CCL Stage III; Corpus Christi,1,1.0
CH4_1B2_250m_-101.91596_31.56912,304.338012949559,1673.86,2,2024-10-01,2025-05-21,31.56912,-101.91596,461-35187,APACHE CORPORATION,"[250300] EL PASO NATURAL GAS COMPANY; [911905] WESTERN GAS PROCESSORS, LTD.; [836044] TARGA PIPELINE MID-CONTINENT LLC; [913450] WGR, INC.; [36586] ATLAS PL MID-CONT. WESTTEX, LLC",0.16,11,11,78.7,Apache Corporation (1.0); Apache Corporation (1.0),Corpus Christi; CCL Stage III,1,1.0
CH4_1B2_250m_-101.99484_31.48281,117.84724550902432,1649.86,1,2025-05-21,2025-05-21,31.48281,-101.99484,461-32648,"PIONEER NATURAL RES. USA, INC.","[911903] WESTERN GAS PROCESSORS-TEXAS, GP; [911908] WESTERN GAS RESOURCES-TEXAS,INC.",0.3,3,3,75.7,"Pioneer Natural Resources USA, Inc. (0.945)",Corpus Christi,1,0.945
CH4_1B2_250m_-101.83065_31.91856,206.0532652650428,1579.74,5,2023-08-17,2025-05-21,31.91856,-101.83065,329-36771,"PIONEER NATURAL RES. USA, INC.","[36586] ATLAS PL MID-CONT. WESTTEX, LLC; [836041] TARGA PL MID-CONT WESTTEX LLC",0.08,16,1,37.8,"Pioneer Natural Resources USA, Inc. (0.945)",Corpus Christi,1,0.945
CH4_1B2_250m_-101.98580_31.67338,247.25606108510797,1112.65,5,2023-08-15,2025-05-21,31.67338,-101.9858,329-46999,XTO ENERGY INC.,[836041] TARGA PL MID-CONT WESTTEX LLC,0.32,18,17,65.0,"XTO Energy Inc. (f/k/a Cross Timbers Energy Services, Inc.) (0.851)",Corpus Christi,1,0.851
CH4_1B2_250m_-102.08332_31.32085,92.68603437095305,926.86,1,2025-05-21,2025-05-21,31.32085,-102.08332,461-34328,"EOG RESOURCES, INC.",[252876] ENOGEX PRODUCTS CORPORATION,0.08,3,2,74.5,"EOG Resources, Inc. (1.0); EOG Resources, Inc. (1.0); EOG Resources, Inc. (1.0)",Sabine Pass; CCL Stage III; Corpus Christi,1,1.0
CH4_1B2_250m_-101.96579_31.50521,56.1526139034424,842.29,1,2025-05-21,2025-05-21,31.50521,-101.96579,461-39956,"PIONEER NATURAL RES. USA, INC.","[911908] WESTERN GAS RESOURCES-TEXAS,INC.; [836044] TARGA PIPELINE MID-CONTINENT LLC; [36584] ATLAS PIPELINE MID-CONTINENT LLC; [911907] WESTERN GAS RESOURCES TEXAS LLC; [836041] TARGA PL MID-CONT WESTTEX LLC",0.02,12,12,88.8,"Pioneer Natural Resources USA, Inc. (0.945)",Corpus Christi,1,0.945
CH4_1B2_250m_-101.89079_31.68779,313.16452464558284,652.43,16,2020-07-15,2025-05-21,31.68779,-101.89079,329-32229,"PIONEER NATURAL RES. USA, INC.","[877060] UNION TEXAS PETROLEUM CORP.; [663680] PHILLIPS PETROLEUM COMPANY; [913450] WGR, INC.; [36586] ATLAS PL MID-CONT. WESTTEX, LLC; [877066] UNION TEXAS PRODUCTS CORPORATION; [836041] TARGA PL MID-CONT WESTTEX LLC; [250300] EL PASO NATURAL GAS COMPANY",0.45,2,2,65.7,"Pioneer Natural Resources USA, Inc. (0.945)",Corpus Christi,1,0.945
CH4_1B2_250m_-101.90684_31.82712,202.71612645295434,442.29,11,2019-10-08,2025-05-21,31.82712,-101.90684,329-33791,"PIONEER NATURAL RES. USA, INC.","[913450] WGR, INC.; [877060] UNION TEXAS PETROLEUM CORP.; [663680] PHILLIPS PETROLEUM COMPANY; [877066] UNION TEXAS PRODUCTS CORPORATION; [36586] ATLAS PL MID-CONT. WESTTEX, LLC; [836041] TARGA PL MID-CONT WESTTEX LLC; [250300] EL PASO NATURAL GAS COMPANY; [661637] PHILLIPS 66 NATURAL GAS COMPANY; [911905] WESTERN GAS PROCESSORS, LTD.",0.22,5,5,81.4,"Pioneer Natural Resources USA, Inc. (0.945)",Corpus Christi,1,0.945
CH4_1B2_250m_-101.97907_31.63368,106.94502372556224,303.01,10,2023-08-15,2025-05-21,31.63368,-101.97907,461-39707,"PIONEER NATURAL RES. USA, INC.",[836041] TARGA PL MID-CONT WESTTEX LLC,0.35,3,3,72.6,"Pioneer Natural Resources USA, Inc. (0.945)",Corpus Christi,1,0.945
CH4_1B2_250m_-102.06706_31.82541,239.979906618487,1919.84,2,2019-10-10,2025-05-07,31.82541,-102.06706,329-43232,"DISCOVERY OPERATING, INC.","[102545] ENTERPRISE M B MIDSTREAM LLC; [100348] ENT NAVITAS MDSTRM MDLND BAS LLC; [252017] ENERGY TRANSFER COMPANY; [601188] NAVITAS MDSTR MIDLAND BASIN, LLC; [253368] ENTERPRISE PRODUCTS OPERATINGLLC",0.19,10,9,74.6,Enterprise Products Operating LLC (0.994); Enterprise Products Operating LLC (0.86),Freeport LNG,1,0.994
CH4_1B2_250m_-101.98455_31.66880,280.3675089495264,1331.75,4,2023-08-04,2025-05-07,31.6688,-101.98455,329-35586,"PIONEER NATURAL RES. USA, INC.","[911908] WESTERN GAS RESOURCES-TEXAS,INC.; [911907] WESTERN GAS RESOURCES TEXAS LLC; [836041] TARGA PL MID-CONT WESTTEX LLC",0.43,2,1,42.0,"Pioneer Natural Resources USA, Inc. (0.945)",Corpus Christi,1,0.945
CH4_1B2_250m_-102.07807_31.79954,47.2555843217865,1228.65,1,2025-05-07,2025-05-07,31.79954,-102.07807,329-44025,DIAMONDBACK E&P LLC,"[601188] NAVITAS MDSTR MIDLAND BASIN, LLC; [100348] ENT NAVITAS MDSTRM MDLND BAS LLC; [102545] ENTERPRISE M B MIDSTREAM LLC",0.09,29,26,78.6,Enterprise Products Operating LLC (0.86),Freeport LNG,1,0.86
CH4_1B2_250m_-101.99546_31.69644,19.95341525696995,518.79,1,2025-05-07,2025-05-07,31.69644,-101.99546,329-40327,XTO ENERGY INC.,[836041] TARGA PL MID-CONT WESTTEX LLC,0.1,10,8,76.0,"XTO Energy Inc. (f/k/a Cross Timbers Energy Services, Inc.) (0.851)",Corpus Christi,1,0.851
CH4_1B2_250m_-102.09056_31.79887,213.18791378940847,402.69,9,2019-10-25,2025-05-07,31.79887,-102.09056,329-34064,APACHE CORPORATION,[29347] ARCO PERMIAN; [148113] CHEVRON U. S. A. INC.; [844118] TEXACO E & P INC.,0.2,31,1,27.8,"Apache Corporation (1.0); Apache Corporation (1.0); Chevron U.S.A. Inc (""Chevron"") (0.866)",Corpus Christi; CCL Stage III,2,1.0
CH4_1B2_250m_-101.77594_31.85192,540.3153847984024,887.66,39,2020-07-18,2025-04-30,31.85192,-101.77594,173-311,"OXYROCK OPERATING, LLC","[663680] PHILLIPS PETROLEUM COMPANY; [195918] DCP MIDSTREAM, LP; [102545] ENTERPRISE M B MIDSTREAM LLC; [319471] GPM GAS CORPORATION; [100348] ENT NAVITAS MDSTRM MDLND BAS LLC; [661637] PHILLIPS 66 NATURAL GAS COMPANY; [836041] TARGA PL MID-CONT WESTTEX LLC; [252017] ENERGY TRANSFER COMPANY; [601188] NAVITAS MDSTR MIDLAND BASIN, LLC",0.33,1,1,76.7,Enterprise Products Operating LLC (0.86),Freeport LNG,1,0.86
CH4_1B2_250m_-101.75388_31.52040,410.67981518769466,704.02,11,2020-07-13,2025-04-30,31.5204,-101.75388,383-36692,"PIONEER NATURAL RES. USA, INC.","[36586] ATLAS PL MID-CONT. WESTTEX, LLC; [102508] ETC SOUTH PERMIAN MIDSTREAM LLC; [877066] UNION TEXAS PRODUCTS CORPORATION; [230719] DUKE ENERGY FIELD SERVICES, LP; [945227] WTG GAS PROCESSING, L.P.; [877060] UNION TEXAS PETROLEUM CORP.; [663680] PHILLIPS PETROLEUM COMPANY; [195918] DCP MIDSTREAM, LP; [913450] WGR, INC.; [250300] EL PASO NATURAL GAS COMPANY; [661637] PHILLIPS 66 NATURAL GAS COMPANY; [319471] GPM GAS CORPORATION; [319468] GPM GAS COMPANY, LLC; [945219] WTG SOUTH PERMIAN MIDSTREAM LLC; [836041] TARGA PL MID-CONT WESTTEX LLC",0.18,3,3,84.7,"Pioneer Natural Resources USA, Inc. (0.945)",Corpus Christi,1,0.945
CH4_1B2_250m_-101.77597_31.84357,40.735536874310526,631.4,2,2024-10-09,2025-04-30,31.84357,-101.77597,173-31036,"OXYROCK OPERATING, LLC","[663680] PHILLIPS PETROLEUM COMPANY; [195918] DCP MIDSTREAM, LP; [102545] ENTERPRISE M B MIDSTREAM LLC; [836041] TARGA PL MID-CONT WESTTEX LLC; [252017] ENERGY TRANSFER COMPANY; [601188] NAVITAS MDSTR MIDLAND BASIN, LLC; [319471] GPM GAS CORPORATION; [100348] ENT NAVITAS MDSTRM MDLND BAS LLC; [661637] PHILLIPS 66 NATURAL GAS COMPANY",0.4,2,2,69.3,Enterprise Products Operating LLC (0.86),Freeport LNG,1,0.86
CH4_1B2_250m_-101.74531_32.03313,64.59329118180321,306.82,7,2024-10-09,2025-04-30,32.03313,-101.74531,173-33250,"PIONEER NATURAL RES. USA, INC.","[836041] TARGA PL MID-CONT WESTTEX LLC; [36586] ATLAS PL MID-CONT. WESTTEX, LLC; [913450] WGR, INC.",0.38,10,10,66.1,"Pioneer Natural Resources USA, Inc. (0.945)",Corpus Christi,1,0.945
CH4_1B2_250m_-101.77844_31.84395,43.093230072081525,158.01,13,2023-08-19,2025-04-30,31.84395,-101.77844,329-39108,"OXYROCK OPERATING, LLC","[663680] PHILLIPS PETROLEUM COMPANY; [195918] DCP MIDSTREAM, LP; [102545] ENTERPRISE M B MIDSTREAM LLC; [836041] TARGA PL MID-CONT WESTTEX LLC; [252017] ENERGY TRANSFER COMPANY; [601188] NAVITAS MDSTR MIDLAND BASIN, LLC; [319471] GPM GAS CORPORATION; [100348] ENT NAVITAS MDSTRM MDLND BAS LLC; [661637] PHILLIPS 66 NATURAL GAS COMPANY",0.29,3,3,76.5,Enterprise Products Operating LLC (0.86),Freeport LNG,1,0.86
CH4_1B2_250m_-101.72616_31.77336,NULL,NULL,1,2025-04-30,2025-04-30,31.77336,-101.72616,173-37565,"CIVITAS PERMIAN OPERATING, LLC","[100348] ENT NAVITAS MDSTRM MDLND BAS LLC; [601188] NAVITAS MDSTR MIDLAND BASIN, LLC; [253368] ENTERPRISE PRODUCTS OPERATINGLLC",0.1,27,23,75.9,Enterprise Products Operating LLC (0.994),Freeport LNG,1,0.994
CH4_1B2_250m_-103.93844_31.77540,129.22078974147766,775.32,4,2019-10-10,2025-04-25,31.7754,-103.93844,389-34554,BPX OPERATING COMPANY,"[698769] REGENCY FIELD SERVICES LLC; [172232] CONOCOPHILLIPS COMPANY; [211476] DELAWARE BASIN MIDSTREAM, LLC; [252017] ENERGY TRANSFER COMPANY; [85349] BP ENERGY CO.",0.36,1,1,74.7,ConocoPhillips Company (1.0); ConocoPhillips Company (1.0); ConocoPhillips Company (1.0); BP Energy Company (0.926); BP Energy Company (0.926); BP Energy Company (0.926),Corpus Christi; Sabine Pass; Calcasieu Pass; Freeport LNG,2,1.0
CH4_1B2_250m_-103.93150_31.81199,44.54064207989704,185.59,9,2019-10-17,2025-04-25,31.81199,-103.9315,389-31359,"WALSH & WATTS, INC.","[172232] CONOCOPHILLIPS COMPANY; [230719] DUKE ENERGY FIELD SERVICES, LP; [172230] CONOCO INC.; [195918] DCP MIDSTREAM, LP",0.33,2,2,73.6,ConocoPhillips Company (1.0); ConocoPhillips Company (1.0); ConocoPhillips Company (1.0),Calcasieu Pass; Corpus Christi; Freeport LNG,1,1.0
CH4_1B2_250m_-103.30494_31.60819,236.7909955110493,947.16,1,2025-04-16,2025-04-16,31.60819,-103.30494,475-34516,APACHE CORPORATION,[836037] TARGA MIDSTREAM SERVICES LLC,0.27,2,2,78.4,Apache Corporation (1.0); Apache Corporation (1.0),Corpus Christi; CCL Stage III,1,1.0
CH4_1B2_250m_-103.26445_31.50698,71.91766939959307,503.42,1,2025-04-16,2025-04-16,31.50698,-103.26445,475-36203,APACHE CORPORATION,[836037] TARGA MIDSTREAM SERVICES LLC,0.05,5,5,93.6,Apache Corporation (1.0); Apache Corporation (1.0),Corpus Christi; CCL Stage III,1,1.0
CH4_1B2_250m_-103.13728_31.45269,57.144767154271456,400.01,1,2025-04-16,2025-04-16,31.45269,-103.13728,475-37481,"CONTINENTAL RESOURCES, INC.",[836046] TARGA MIDLAND LLC,0.17,5,5,85.3,Targa Gas Marketing LLC (0.858),Corpus Christi,1,0.858
CH4_1B2_250m_-103.14322_31.45576,12.43855678232064,87.07,1,2025-04-16,2025-04-16,31.45576,-103.14322,475-37017,JAGGED PEAK ENERGY LLC,[836046] TARGA MIDLAND LLC; [252017] ENERGY TRANSFER COMPANY,0.17,4,1,47.8,Targa Gas Marketing LLC (0.858),Corpus Christi,1,0.858
CH4_1B2_250m_-98.77818_28.29809,107.7862958154767,646.72,1,2025-04-14,2025-04-14,28.29809,-98.77818,311-35571,"KIMMERIDGE TEXAS GAS, LLC","[286611] FRIO LASALLE PIPELINE, LP; [85349] BP ENERGY CO.; [30818] ARM ENERGY MANAGEMENT LLC",0.21,2,2,82.5,BP Energy Company (0.926); BP Energy Company (0.926); BP Energy Company (0.926),Sabine Pass; Calcasieu Pass; Freeport LNG,1,0.926
CH4_1B2_250m_-98.83677_28.26792,83.25159909839797,582.76,1,2025-04-14,2025-04-14,28.26792,-98.83677,283-34119,"KIMMERIDGE TEXAS GAS, LLC",[30818] ARM ENERGY MANAGEMENT LLC; [85349] BP ENERGY CO.,0.11,1,1,92.3,BP Energy Company (0.926); BP Energy Company (0.926); BP Energy Company (0.926),Sabine Pass; Calcasieu Pass; Freeport LNG,1,0.926
CH4_1B2_250m_-102.66833_31.52186,88.18623821805012,617.3,1,2025-04-11,2025-04-11,31.52186,-102.66833,103-36730,"BLACKBEARD OPERATING, LLC","[836037] TARGA MIDSTREAM SERVICES LLC; [109339] BURLINGTON RESOURCES TRADING INC; [195959] DCP OPERATING COMPANY, LP; [172232] CONOCOPHILLIPS COMPANY; [252017] ENERGY TRANSFER COMPANY; [250300] EL PASO NATURAL GAS COMPANY; [561134] MERIDIAN OIL TRADING INC.",0.11,8,8,85.1,ConocoPhillips Company (1.0); ConocoPhillips Company (1.0); ConocoPhillips Company (1.0),Calcasieu Pass; Freeport LNG; Corpus Christi,1,1.0
CH4_1B2_250m_-99.64279_28.33141,158.41508301719963,633.66,1,2025-04-07,2025-04-07,28.33141,-99.64279,127-38393,"ROSEWOOD RESOURCES, INC.",[463345] KINDER MORGAN TEXAS PIPELINE LLC; [85349] BP ENERGY CO.; [841396] TENASKA MARKETING VENTURES,0.34,4,2,48.3,"Tenaska Marketing Ventures (1.0); Tenaska Marketing Ventures (1.0); Tenaska Marketing Ventures (1.0); Kinder Morgan Tejas Pipeline LLC (0.987); Kinder Morgan Tejas Pipeline, LLC (KMTP) (0.949); BP Energy Company (0.926); BP Energy Company (0.926); BP Energy Company (0.926); Kinder Morgan Tejas Pipeline LLC & Kinder Morgan Texas Pipeline LLC (0.886)",Calcasieu Pass; Sabine Pass; Plaquemines LNG; Corpus Christi; Freeport LNG,5,1.0
CH4_1B2_250m_-102.62887_31.52383,83.39098589378935,500.35,1,2025-03-28,2025-03-28,31.52383,-102.62887,103-36922,"BLACKBEARD OPERATING, LLC","[252017] ENERGY TRANSFER COMPANY; [250300] EL PASO NATURAL GAS COMPANY; [561134] MERIDIAN OIL TRADING INC.; [836037] TARGA MIDSTREAM SERVICES LLC; [109339] BURLINGTON RESOURCES TRADING INC; [195959] DCP OPERATING COMPANY, LP; [172232] CONOCOPHILLIPS COMPANY",0.03,25,25,87.7,ConocoPhillips Company (1.0); ConocoPhillips Company (1.0); ConocoPhillips Company (1.0),Freeport LNG; Corpus Christi; Calcasieu Pass,1,1.0
CH4_1B2_250m_-99.59756_28.34402,90.63640579714448,362.55,1,2025-03-10,2025-03-10,28.34402,-99.59756,127-37322,MURPHY EXPL. & PROD. CO. - USA,[139683] CASTLETON COMMOD MERCH TRDG L.P.,0.25,7,3,47.2,Castleton Commodities Merchant Trading L.P. (0.924); Castleton Commodities Merchant Trading L.P. (0.924),Sabine Pass; Corpus Christi,1,0.924
CH4_1B2_250m_-97.39528_29.20511,127.79078757120222,894.54,1,2025-03-08,2025-03-08,29.20511,-97.39528,123-34414,BURLINGTON RESOURCES O & G CO LP,[172232] CONOCOPHILLIPS COMPANY,0.1,1,1,92.7,ConocoPhillips Company (1.0); ConocoPhillips Company (1.0); ConocoPhillips Company (1.0),Calcasieu Pass; Freeport LNG; Corpus Christi,1,1.0
CH4_1B2_250m_-103.15445_31.66978,144.80226046306984,579.21,1,2025-03-07,2025-03-07,31.66978,-103.15445,495-32721,"JETTA OPERATING COMPANY, INC.","[252017] ENERGY TRANSFER COMPANY; [153429] CIMAREX ENERGY CO. OF COLORADO; [897999] WARREN PETROLEUM COMPANY, LP; [237948] DYNEGY MIDSTREAM SERVICES, LP; [337106] GRUY PETROLEUM MANAGEMENT CO.",0.08,1,1,94.5,Cimarex Energy Co. (0.92),Corpus Christi,1,0.92
CH4_1B2_250m_-103.11050_31.32147,193.7335144775854,387.47,2,2019-10-31,2025-03-07,31.32147,-103.1105,389-31279,"JETTA OPERATING COMPANY, INC.","[148113] CHEVRON U. S. A. INC.; [292232] G P II ENERGY, INC.; [230719] DUKE ENERGY FIELD SERVICES, LP; [698769] REGENCY FIELD SERVICES LLC; [698763] REGENCY GAS SERVICES WAHA, LP; [252017] ENERGY TRANSFER COMPANY; [230700] DUKE ENERGY GATH. & PROC., L.P.; [898000] WARREN PETROLEUM COMPANY; [89903] BRAZOS MIDSTREAM OPERATING, LLC; [864950] TRANSWESTERN PIPE LINE CO.",0.19,5,5,83.9,"Chevron U.S.A. Inc (""Chevron"") (0.866)",Corpus Christi,1,0.866
CH4_1B2_250m_-103.10920_31.27485,110.61843427559133,221.24,2,2019-10-31,2025-03-07,31.27485,-103.1092,389-31429,ENTERPRISE PRODUCTS OPERATINGLLC,NULL,0.36,1,1,74.7,Enterprise Products Operating LLC (0.994),Freeport LNG,1,0.994
CH4_1B2_250m_-103.83100_31.94322,54.06908617591967,729.93,2,2023-08-27,2025-02-14,31.94322,-103.831,301-30899,"WPX ENERGY PERMIAN, LLC","[862786] TOTAL GAS & POWER NA, INC.; [558223] MEDALLION DELAWARE BASIN, LLC; [617543] OCCIDENTAL ENERGY MARKETING,INC.; [144535] CHAPARRAL ENERGY, L.L.C.; [172230] CONOCO INC.; [211545] DELAWARE NATURAL GAS COMPANY,INC; [709200] RICHARDSON, SID, GASOLINE CO.; [709220] RICHARDSON, SID ENERGY SERV. CO.; [148113] CHEVRON U. S. A. INC.; [509364] LOUIS DREYFUS ENERGY SERVICES LP",0.35,1,1,75.4,"Chevron U.S.A. Inc (""Chevron"") (0.866)",Corpus Christi,1,0.866
CH4_1B2_250m_-101.96191_31.81092,57.678020970965726,519.1,2,2021-10-16,2025-01-01,31.81092,-101.96191,329-34948,"PIONEER NATURAL RES. USA, INC.","[836041] TARGA PL MID-CONT WESTTEX LLC; [913450] WGR, INC.; [36586] ATLAS PL MID-CONT. WESTTEX, LLC",0.13,8,8,83.9,"Pioneer Natural Resources USA, Inc. (0.945)",Corpus Christi,1,0.945
CH4_1B2_250m_-101.75480_32.42265,57.53757158797801,402.76,1,2025-01-01,2025-01-01,32.42265,-101.7548,317-38112,DIAMONDBACK E&P LLC,"[195918] DCP MIDSTREAM, LP; [195959] DCP OPERATING COMPANY, LP; [601188] NAVITAS MDSTR MIDLAND BASIN, LLC; [253368] ENTERPRISE PRODUCTS OPERATINGLLC; [100348] ENT NAVITAS MDSTRM MDLND BAS LLC",0.31,3,3,75.1,Enterprise Products Operating LLC (0.994),Freeport LNG,1,0.994
CH4_1B2_250m_-101.57978_32.44964,103.09376895611697,721.66,1,2024-12-27,2024-12-27,32.44964,-101.57978,227-34904,"PIONEER NATURAL RES. USA, INC.","[844118] TEXACO E & P INC.; [945227] WTG GAS PROCESSING, L.P.",0.25,2,1,54.6,"Pioneer Natural Resources USA, Inc. (0.945)",Corpus Christi,1,0.945
CH4_1B2_250m_-101.64655_31.48942,782.8834397614072,5088.74,2,2023-06-16,2024-11-30,31.48942,-101.64655,383-35250,APACHE CORPORATION,"[877066] UNION TEXAS PRODUCTS CORPORATION; [698769] REGENCY FIELD SERVICES LLC; [913450] WGR, INC.; [709220] RICHARDSON, SID ENERGY SERV. CO.; [805477] SOUTHERN UNION GAS SERVICES, LTD; [252017] ENERGY TRANSFER COMPANY",0.17,6,6,81.4,Apache Corporation (1.0); Apache Corporation (1.0),CCL Stage III; Corpus Christi,1,1.0
CH4_1B2_250m_-101.68056_31.39830,164.30157757350082,1807.32,1,2024-11-30,2024-11-30,31.3983,-101.68056,383-35672,APACHE CORPORATION,"[102508] ETC SOUTH PERMIAN MIDSTREAM LLC; [821796] STILES GASOLINE PLANT; [614500] NORTHERN NATURAL GAS CO.; [945219] WTG SOUTH PERMIAN MIDSTREAM LLC; [202491] DAVIS GAS PROCESSING, INC.",0.14,6,4,66.5,Apache Corporation (1.0); Apache Corporation (1.0),Corpus Christi; CCL Stage III,1,1.0
CH4_1B2_250m_-101.87908_31.97790,37.255974838467175,1192.19,1,2024-11-30,2024-11-30,31.9779,-101.87908,329-30926,DIAMONDBACK E&P LLC,"[601188] NAVITAS MDSTR MIDLAND BASIN, LLC; [319471] GPM GAS CORPORATION; [319468] GPM GAS COMPANY, LLC; [100348] ENT NAVITAS MDSTRM MDLND BAS LLC; [661637] PHILLIPS 66 NATURAL GAS COMPANY; [663680] PHILLIPS PETROLEUM COMPANY; [195918] DCP MIDSTREAM, LP; [102545] ENTERPRISE M B MIDSTREAM LLC; [230719] DUKE ENERGY FIELD SERVICES, LP; [195959] DCP OPERATING COMPANY, LP",0.38,1,1,73.7,Enterprise Products Operating LLC (0.86),Freeport LNG,1,0.86
CH4_1B2_250m_-103.29597_31.49279,71.35221840567283,428.11,1,2024-11-26,2024-11-26,31.49279,-103.29597,475-35986,APACHE CORPORATION,[252017] ENERGY TRANSFER COMPANY; [698769] REGENCY FIELD SERVICES LLC; [836037] TARGA MIDSTREAM SERVICES LLC,0.13,5,5,88.2,Apache Corporation (1.0); Apache Corporation (1.0),CCL Stage III; Corpus Christi,1,1.0
CH4_1B2_250m_-103.20317_31.63873,32.272748376137066,225.91,1,2024-11-26,2024-11-26,31.63873,-103.20317,475-38759,JAGGED PEAK ENERGY LLC,[836022] TARGA DELAWARE LLC,0.04,6,6,90.3,Targa Gas Marketing LLC (0.863),Corpus Christi,1,0.863
CH4_1B2_250m_-103.27561_31.58723,32.559191190623814,162.8,1,2024-11-26,2024-11-26,31.58723,-103.27561,475-32178,APACHE CORPORATION,"[836033] TARGA MIDSTREAM SERVICES LP; [898000] WARREN PETROLEUM COMPANY; [897999] WARREN PETROLEUM COMPANY, LP; [237948] DYNEGY MIDSTREAM SERVICES, LP; [836037] TARGA MIDSTREAM SERVICES LLC",0.44,2,2,66.4,Apache Corporation (1.0); Apache Corporation (1.0),CCL Stage III; Corpus Christi,1,1.0
CH4_1B2_250m_-103.19746_31.57398,19.310333667976618,135.17,1,2024-11-26,2024-11-26,31.57398,-103.19746,475-37269,JAGGED PEAK ENERGY LLC,[836046] TARGA MIDLAND LLC,0.04,3,2,77.3,Targa Gas Marketing LLC (0.858),Corpus Christi,1,0.858
CH4_1B2_250m_-103.30241_31.53861,8.364002088777662,50.18,1,2024-11-26,2024-11-26,31.53861,-103.30241,475-37596,"BTA OIL PRODUCERS, LLC","[89903] BRAZOS MIDSTREAM OPERATING, LLC; [836022] TARGA DELAWARE LLC",0.13,7,4,62.4,Targa Gas Marketing LLC (0.863),Corpus Christi,1,0.863
CH4_1B2_250m_-103.53884_31.93496,84.25289063933997,617.85,3,2020-07-16,2024-11-09,31.93496,-103.53884,301-34971,XTO ENERGY INC.,[252017] ENERGY TRANSFER COMPANY,0.54,2,2,62.0,"XTO Energy Inc. (f/k/a Cross Timbers Energy Services, Inc.) (0.851)",Corpus Christi,1,0.851
CH4_1B2_250m_-103.41022_31.89562,169.47601064948827,564.92,7,2021-07-27,2024-11-09,31.89562,-103.41022,301-33811,PDEH LLC,[836022] TARGA DELAWARE LLC,0.1,4,2,64.8,Targa Gas Marketing LLC (0.863),Corpus Christi,1,0.863
CH4_1B2_250m_-103.35762_31.92785,45.87707272633103,504.65,1,2024-11-09,2024-11-09,31.92785,-103.35762,301-35421,COG OPERATING LLC,[836022] TARGA DELAWARE LLC,0.29,3,3,76.7,Targa Gas Marketing LLC (0.863),Corpus Christi,1,0.863
CH4_1B2_250m_-103.36312_31.97175,2.1457353947091677,34.33,1,2024-11-09,2024-11-09,31.97175,-103.36312,301-33966,"WPX ENERGY PERMIAN, LLC","[255104] ETC TEXAS P/L, LTD; [211476] DELAWARE BASIN MIDSTREAM, LLC; [558223] MEDALLION DELAWARE BASIN, LLC; [211538] DELAWARE G&P LLC; [816097] STATELINE PROCESSING, LLC; [101271] DELAWARE BASIN MIDSTREAM LLC; [836022] TARGA DELAWARE LLC; [100883] ET GATHERING & PROCESSING LLC",0.15,8,3,51.0,Targa Gas Marketing LLC (0.863),Corpus Christi,1,0.863
CH4_1B2_250m_-103.56195_31.94002,NULL,NULL,1,2024-11-09,2024-11-09,31.94002,-103.56195,301-33150,XTO ENERGY INC.,[252017] ENERGY TRANSFER COMPANY,0.25,15,15,72.2,"XTO Energy Inc. (f/k/a Cross Timbers Energy Services, Inc.) (0.851)",Corpus Christi,1,0.851
CH4_1B2_250m_-102.19531_32.18121,87.03655442878643,696.29,1,2024-11-05,2024-11-05,32.18121,-102.19531,317-38403,COG OPERATING LLC,"[263935] FEAGAN GATHERING COMPANY; [945227] WTG GAS PROCESSING, L.P.; [195918] DCP MIDSTREAM, LP; [179361] CORONADO MIDSTREAM LLC; [100348] ENT NAVITAS MDSTRM MDLND BAS LLC; [253368] ENTERPRISE PRODUCTS OPERATINGLLC",0.16,5,5,86.1,Enterprise Products Operating LLC (0.994),Freeport LNG,1,0.994
CH4_1B2_250m_-102.04827_32.28366,NULL,NULL,1,2024-11-05,2024-11-05,32.28366,-102.04827,317-33379,"PIONEER NATURAL RES. USA, INC.","[195918] DCP MIDSTREAM, LP; [230719] DUKE ENERGY FIELD SERVICES, LP; [195959] DCP OPERATING COMPANY, LP; [319471] GPM GAS CORPORATION; [319468] GPM GAS COMPANY, LLC; [100348] ENT NAVITAS MDSTRM MDLND BAS LLC; [661637] PHILLIPS 66 NATURAL GAS COMPANY",0.12,2,2,88.4,"Pioneer Natural Resources USA, Inc. (0.945)",Corpus Christi,1,0.945
CH4_1B2_250m_-101.72605_32.27728,830.2085768178846,1245.31,4,2019-10-18,2024-10-24,32.27728,-101.72605,317-46018,XTO ENERGY INC.,[252017] ENERGY TRANSFER COMPANY,0.25,7,5,60.9,"XTO Energy Inc. (f/k/a Cross Timbers Energy Services, Inc.) (0.851)",Corpus Christi,1,0.851
CH4_1B2_250m_-101.74840_32.08129,119.04548879852088,1666.64,1,2024-10-10,2024-10-10,32.08129,-101.7484,173-37479,"PIONEER NATURAL RES. USA, INC.",[836041] TARGA PL MID-CONT WESTTEX LLC,0.06,6,6,89.0,"Pioneer Natural Resources USA, Inc. (0.945)",Corpus Christi,1,0.945
CH4_1B2_250m_-101.86776_31.55532,117.93417479667792,432.43,15,2024-10-01,2024-10-10,31.55532,-101.86776,461-38822,"PIONEER NATURAL RES. USA, INC.","[836044] TARGA PIPELINE MID-CONTINENT LLC; [36586] ATLAS PL MID-CONT. WESTTEX, LLC; [836041] TARGA PL MID-CONT WESTTEX LLC",0.16,3,3,85.5,"Pioneer Natural Resources USA, Inc. (0.945)",Corpus Christi,1,0.945
CH4_1B2_250m_-101.71943_32.15921,153.73280071634093,307.47,6,2024-10-09,2024-10-10,32.15921,-101.71943,317-46689,SM ENERGY COMPANY,"[102487] ETC GAS PROCESSING, LLC; [945227] WTG GAS PROCESSING, L.P.",0.12,10,8,74.5,BP Energy Company (0.922); BP Energy Company (0.922); BP Energy Company (0.922),Freeport LNG; Sabine Pass; Calcasieu Pass,1,0.922
CH4_1B2_250m_-101.78003_31.80208,50.24041257762426,263.76,10,2023-08-19,2024-10-10,31.80208,-101.78003,329-43053,"OXYROCK OPERATING, LLC","[601188] NAVITAS MDSTR MIDLAND BASIN, LLC; [252017] ENERGY TRANSFER COMPANY; [253368] ENTERPRISE PRODUCTS OPERATINGLLC; [100883] ET GATHERING & PROCESSING LLC",0.14,5,2,57.2,Enterprise Products Operating LLC (0.994),Freeport LNG,1,0.994
CH4_1B2_250m_-101.79567_31.73264,26.30799587964411,192.93,5,2024-10-01,2024-10-10,31.73264,-101.79567,329-32574,"PIONEER NATURAL RES. USA, INC.","[913450] WGR, INC.; [572390] MOBIL NATURAL GAS INC.; [36586] ATLAS PL MID-CONT. WESTTEX, LLC",0.32,2,2,74.8,"Pioneer Natural Resources USA, Inc. (0.945)",Corpus Christi,1,0.945
CH4_1B2_250m_-101.82177_31.55069,47.17534467550388,188.7,5,2024-10-01,2024-10-10,31.55069,-101.82177,461-2246,"PIONEER NATURAL RES. USA, INC.",NULL,0.54,1,1,65.0,"Pioneer Natural Resources USA, Inc. (0.945)",Corpus Christi,1,0.945
CH4_1B2_250m_-101.74306_31.89446,86.29806378468913,182.18,18,2019-10-20,2024-10-10,31.89446,-101.74306,173-30360,"PIONEER NATURAL RES. USA, INC.",[836041] TARGA PL MID-CONT WESTTEX LLC,0.54,1,1,65.0,"Pioneer Natural Resources USA, Inc. (0.945)",Corpus Christi,1,0.945
CH4_1B2_250m_-101.78337_31.97843,25.760339175646152,171.74,4,2024-10-01,2024-10-10,31.97843,-101.78337,329-35503,"PIONEER NATURAL RES. USA, INC.","[36586] ATLAS PL MID-CONT. WESTTEX, LLC; [913450] WGR, INC.; [836041] TARGA PL MID-CONT WESTTEX LLC",0.22,1,1,84.4,"Pioneer Natural Resources USA, Inc. (0.945)",Corpus Christi,1,0.945
CH4_1B2_250m_-101.78711_31.70445,18.156698548168006,133.15,5,2024-10-01,2024-10-10,31.70445,-101.78711,329-34125,"PIONEER NATURAL RES. USA, INC.","[836041] TARGA PL MID-CONT WESTTEX LLC; [945218] WTG NORTH PERMIAN MIDSTREAM LLC; [319471] GPM GAS CORPORATION; [319468] GPM GAS COMPANY, LLC; [945219] WTG SOUTH PERMIAN MIDSTREAM LLC; [250300] EL PASO NATURAL GAS COMPANY; [661637] PHILLIPS 66 NATURAL GAS COMPANY; [911905] WESTERN GAS PROCESSORS, LTD.; [913450] WGR, INC.; [663680] PHILLIPS PETROLEUM COMPANY; [877060] UNION TEXAS PETROLEUM CORP.; [195918] DCP MIDSTREAM, LP; [877066] UNION TEXAS PRODUCTS CORPORATION; [230719] DUKE ENERGY FIELD SERVICES, LP; [945227] WTG GAS PROCESSING, L.P.; [36586] ATLAS PL MID-CONT. WESTTEX, LLC; [102508] ETC SOUTH PERMIAN MIDSTREAM LLC",0.21,5,4,72.0,"Pioneer Natural Resources USA, Inc. (0.945)",Corpus Christi,1,0.945
CH4_1B2_250m_-101.79201_31.77635,11.926884983209876,131.2,2,2021-10-04,2024-10-10,31.77635,-101.79201,329-42785,APACHE CORPORATION,"[601188] NAVITAS MDSTR MIDLAND BASIN, LLC; [100348] ENT NAVITAS MDSTRM MDLND BAS LLC",0.28,15,15,70.6,Apache Corporation (1.0); Apache Corporation (1.0),CCL Stage III; Corpus Christi,1,1.0
CH4_1B2_250m_-101.72050_31.52645,329.808726909735,989.43,5,2024-10-01,2024-10-09,31.52645,-101.7205,383-36251,"PIONEER NATURAL RES. USA, INC.","[36586] ATLAS PL MID-CONT. WESTTEX, LLC; [102508] ETC SOUTH PERMIAN MIDSTREAM LLC; [877066] UNION TEXAS PRODUCTS CORPORATION; [230719] DUKE ENERGY FIELD SERVICES, LP; [945227] WTG GAS PROCESSING, L.P.; [877060] UNION TEXAS PETROLEUM CORP.; [663680] PHILLIPS PETROLEUM COMPANY; [195918] DCP MIDSTREAM, LP; [913450] WGR, INC.; [250300] EL PASO NATURAL GAS COMPANY; [661637] PHILLIPS 66 NATURAL GAS COMPANY; [319471] GPM GAS CORPORATION; [319468] GPM GAS COMPANY, LLC; [945219] WTG SOUTH PERMIAN MIDSTREAM LLC; [836041] TARGA PL MID-CONT WESTTEX LLC",0.36,5,5,71.5,"Pioneer Natural Resources USA, Inc. (0.945)",Corpus Christi,1,0.945
CH4_1B2_250m_-101.78258_32.28019,581.0509941621442,968.42,14,2019-10-08,2024-10-09,32.28019,-101.78258,317-39397,"PIONEER NATURAL RES. USA, INC.","[945227] WTG GAS PROCESSING, L.P.; [102493] ETC NORTH PERMIAN MIDSTREAM LLC; [945218] WTG NORTH PERMIAN MIDSTREAM LLC",0.18,5,2,54.6,"Pioneer Natural Resources USA, Inc. (0.945)",Corpus Christi,1,0.945
CH4_1B2_250m_-101.89085_31.70478,305.3487660182365,712.48,10,2020-07-15,2024-10-09,31.70478,-101.89085,329-33670,"PIONEER NATURAL RES. USA, INC.","[913450] WGR, INC.; [877060] UNION TEXAS PETROLEUM CORP.; [663680] PHILLIPS PETROLEUM COMPANY; [877066] UNION TEXAS PRODUCTS CORPORATION; [36586] ATLAS PL MID-CONT. WESTTEX, LLC; [836041] TARGA PL MID-CONT WESTTEX LLC; [250300] EL PASO NATURAL GAS COMPANY",0.3,7,4,50.7,"Pioneer Natural Resources USA, Inc. (0.945)",Corpus Christi,1,0.945
CH4_1B2_250m_-101.87366_31.66183,125.50224911827422,552.21,8,2021-07-26,2024-10-09,31.66183,-101.87366,329-32880,"PIONEER NATURAL RES. USA, INC.","[250300] EL PASO NATURAL GAS COMPANY; [836041] TARGA PL MID-CONT WESTTEX LLC; [36586] ATLAS PL MID-CONT. WESTTEX, LLC; [877066] UNION TEXAS PRODUCTS CORPORATION; [877060] UNION TEXAS PETROLEUM CORP.; [663680] PHILLIPS PETROLEUM COMPANY; [913450] WGR, INC.",0.35,4,4,72.3,"Pioneer Natural Resources USA, Inc. (0.945)",Corpus Christi,1,0.945
CH4_1B2_250m_-101.95288_31.56403,32.20263094043638,483.04,1,2024-10-09,2024-10-09,31.56403,-101.95288,461-32289,"PIONEER NATURAL RES. USA, INC.","[36586] ATLAS PL MID-CONT. WESTTEX, LLC; [913450] WGR, INC.; [250300] EL PASO NATURAL GAS COMPANY; [911905] WESTERN GAS PROCESSORS, LTD.; [836041] TARGA PL MID-CONT WESTTEX LLC",0.2,5,2,53.3,"Pioneer Natural Resources USA, Inc. (0.945)",Corpus Christi,1,0.945
CH4_1B2_250m_-101.74658_31.79331,91.66271964324915,290.27,10,2021-10-04,2024-10-09,31.79331,-101.74658,173-39208,"CIVITAS PERMIAN OPERATING, LLC","[100348] ENT NAVITAS MDSTRM MDLND BAS LLC; [601188] NAVITAS MDSTR MIDLAND BASIN, LLC; [253368] ENTERPRISE PRODUCTS OPERATINGLLC",0.18,20,19,75.2,Enterprise Products Operating LLC (0.994),Freeport LNG,1,0.994
CH4_1B2_250m_-101.86850_31.66055,22.863970781471213,251.5,3,2024-10-01,2024-10-09,31.66055,-101.8685,329-32862,"PIONEER NATURAL RES. USA, INC.","[36586] ATLAS PL MID-CONT. WESTTEX, LLC; [877066] UNION TEXAS PRODUCTS CORPORATION; [877060] UNION TEXAS PETROLEUM CORP.; [663680] PHILLIPS PETROLEUM COMPANY; [913450] WGR, INC.; [250300] EL PASO NATURAL GAS COMPANY; [836041] TARGA PL MID-CONT WESTTEX LLC",0.24,4,4,80.3,"Pioneer Natural Resources USA, Inc. (0.945)",Corpus Christi,1,0.945
CH4_1B2_250m_-101.90380_31.68200,8.419199181207802,176.8,1,2024-10-09,2024-10-09,31.682,-101.9038,329-32841,"PIONEER NATURAL RES. USA, INC.","[877066] UNION TEXAS PRODUCTS CORPORATION; [36586] ATLAS PL MID-CONT. WESTTEX, LLC; [913450] WGR, INC.; [877060] UNION TEXAS PETROLEUM CORP.; [663680] PHILLIPS PETROLEUM COMPANY; [250300] EL PASO NATURAL GAS COMPANY; [836041] TARGA PL MID-CONT WESTTEX LLC",0.27,4,2,53.2,"Pioneer Natural Resources USA, Inc. (0.945)",Corpus Christi,1,0.945
CH4_1B2_250m_-101.73534_31.69672,44.72753926640837,161.02,6,2021-07-26,2024-10-09,31.69672,-101.73534,173-32569,"PIONEER NATURAL RES. USA, INC.","[250300] EL PASO NATURAL GAS COMPANY; [661637] PHILLIPS 66 NATURAL GAS COMPANY; [911905] WESTERN GAS PROCESSORS, LTD.; [319471] GPM GAS CORPORATION; [319468] GPM GAS COMPANY, LLC; [945219] WTG SOUTH PERMIAN MIDSTREAM LLC; [945218] WTG NORTH PERMIAN MIDSTREAM LLC; [836041] TARGA PL MID-CONT WESTTEX LLC; [36586] ATLAS PL MID-CONT. WESTTEX, LLC; [102508] ETC SOUTH PERMIAN MIDSTREAM LLC; [877066] UNION TEXAS PRODUCTS CORPORATION; [230719] DUKE ENERGY FIELD SERVICES, LP; [945227] WTG GAS PROCESSING, L.P.; [663680] PHILLIPS PETROLEUM COMPANY; [877060] UNION TEXAS PETROLEUM CORP.; [195918] DCP MIDSTREAM, LP; [913450] WGR, INC.",0.16,1,1,88.5,"Pioneer Natural Resources USA, Inc. (0.945)",Corpus Christi,1,0.945
CH4_1B2_250m_-101.72695_31.44708,31.6211677485436,142.3,3,2024-10-01,2024-10-09,31.44708,-101.72695,383-38378,"PIONEER NATURAL RES. USA, INC.","[36586] ATLAS PL MID-CONT. WESTTEX, LLC; [102508] ETC SOUTH PERMIAN MIDSTREAM LLC; [836044] TARGA PIPELINE MID-CONTINENT LLC; [945219] WTG SOUTH PERMIAN MIDSTREAM LLC; [836041] TARGA PL MID-CONT WESTTEX LLC",0.07,12,12,85.1,"Pioneer Natural Resources USA, Inc. (0.945)",Corpus Christi,1,0.945
CH4_NA_250m_-101.77659_31.85221,12.531470489695188,131.58,3,2023-08-24,2024-10-09,31.85221,-101.77659,173-311,"OXYROCK OPERATING, LLC","[252017] ENERGY TRANSFER COMPANY; [601188] NAVITAS MDSTR MIDLAND BASIN, LLC; [836041] TARGA PL MID-CONT WESTTEX LLC; [661637] PHILLIPS 66 NATURAL GAS COMPANY; [319471] GPM GAS CORPORATION; [100348] ENT NAVITAS MDSTRM MDLND BAS LLC; [663680] PHILLIPS PETROLEUM COMPANY; [195918] DCP MIDSTREAM, LP; [102545] ENTERPRISE M B MIDSTREAM LLC",0.4,3,3,69.0,Enterprise Products Operating LLC (0.86),Freeport LNG,1,0.86
CH4_1B2_250m_-101.87356_31.64332,27.454525782751713,120.8,7,2023-08-17,2024-10-09,31.64332,-101.87356,461-32758,"PIONEER NATURAL RES. USA, INC.","[36586] ATLAS PL MID-CONT. WESTTEX, LLC; [877066] UNION TEXAS PRODUCTS CORPORATION; [877060] UNION TEXAS PETROLEUM CORP.; [663680] PHILLIPS PETROLEUM COMPANY; [913450] WGR, INC.; [250300] EL PASO NATURAL GAS COMPANY; [836041] TARGA PL MID-CONT WESTTEX LLC",0.23,1,1,83.7,"Pioneer Natural Resources USA, Inc. (0.945)",Corpus Christi,1,0.945
CH4_1B2_250m_-101.95979_31.50225,54.80365046076864,109.61,3,2024-10-01,2024-10-09,31.50225,-101.95979,461-37045,"PIONEER NATURAL RES. USA, INC.","[911908] WESTERN GAS RESOURCES-TEXAS,INC.; [836044] TARGA PIPELINE MID-CONTINENT LLC; [36584] ATLAS PIPELINE MID-CONTINENT LLC; [911907] WESTERN GAS RESOURCES TEXAS LLC; [836041] TARGA PL MID-CONT WESTTEX LLC",0.19,6,6,80.0,"Pioneer Natural Resources USA, Inc. (0.945)",Corpus Christi,1,0.945
CH4_1B2_250m_-101.72968_31.61775,21.723611522784644,108.62,4,2024-10-01,2024-10-09,31.61775,-101.72968,383-35295,"PIONEER NATURAL RES. USA, INC.","[250300] EL PASO NATURAL GAS COMPANY; [661637] PHILLIPS 66 NATURAL GAS COMPANY; [911905] WESTERN GAS PROCESSORS, LTD.; [319471] GPM GAS CORPORATION; [319468] GPM GAS COMPANY, LLC; [945219] WTG SOUTH PERMIAN MIDSTREAM LLC; [945218] WTG NORTH PERMIAN MIDSTREAM LLC; [836041] TARGA PL MID-CONT WESTTEX LLC; [36586] ATLAS PL MID-CONT. WESTTEX, LLC; [102508] ETC SOUTH PERMIAN MIDSTREAM LLC; [877066] UNION TEXAS PRODUCTS CORPORATION; [230719] DUKE ENERGY FIELD SERVICES, LP; [945227] WTG GAS PROCESSING, L.P.; [663680] PHILLIPS PETROLEUM COMPANY; [877060] UNION TEXAS PETROLEUM CORP.; [195918] DCP MIDSTREAM, LP; [913450] WGR, INC.",0.2,5,4,73.3,"Pioneer Natural Resources USA, Inc. (0.945)",Corpus Christi,1,0.945
CH4_1B2_250m_-101.78621_32.02021,34.0236763196788,107.74,7,2021-07-26,2024-10-09,32.02021,-101.78621,329-35753,"PIONEER NATURAL RES. USA, INC.","[296684] GASMARK, INC.; [36586] ATLAS PL MID-CONT. WESTTEX, LLC; [913450] WGR, INC.; [250300] EL PASO NATURAL GAS COMPANY; [911905] WESTERN GAS PROCESSORS, LTD.; [836041] TARGA PL MID-CONT WESTTEX LLC",0.25,6,3,50.5,"Pioneer Natural Resources USA, Inc. (0.945)",Corpus Christi,1,0.945
CH4_1B2_250m_-101.74534_31.58681,23.528006731324396,105.88,3,2024-10-01,2024-10-09,31.58681,-101.74534,383-34910,"PIONEER NATURAL RES. USA, INC.","[945218] WTG NORTH PERMIAN MIDSTREAM LLC; [836041] TARGA PL MID-CONT WESTTEX LLC; [250300] EL PASO NATURAL GAS COMPANY; [661637] PHILLIPS 66 NATURAL GAS COMPANY; [911905] WESTERN GAS PROCESSORS, LTD.; [319471] GPM GAS CORPORATION; [319468] GPM GAS COMPANY, LLC; [945219] WTG SOUTH PERMIAN MIDSTREAM LLC; [663680] PHILLIPS PETROLEUM COMPANY; [877060] UNION TEXAS PETROLEUM CORP.; [195918] DCP MIDSTREAM, LP; [913450] WGR, INC.; [36586] ATLAS PL MID-CONT. WESTTEX, LLC; [102508] ETC SOUTH PERMIAN MIDSTREAM LLC; [877066] UNION TEXAS PRODUCTS CORPORATION; [230719] DUKE ENERGY FIELD SERVICES, LP; [945227] WTG GAS PROCESSING, L.P.",0.18,4,4,84.6,"Pioneer Natural Resources USA, Inc. (0.945)",Corpus Christi,1,0.945
CH4_1B2_250m_-101.70539_31.67753,51.16987112884004,102.34,3,2024-10-01,2024-10-09,31.67753,-101.70539,173-32940,"PIONEER NATURAL RES. USA, INC.","[250300] EL PASO NATURAL GAS COMPANY; [661637] PHILLIPS 66 NATURAL GAS COMPANY; [911905] WESTERN GAS PROCESSORS, LTD.; [319471] GPM GAS CORPORATION; [319468] GPM GAS COMPANY, LLC; [945219] WTG SOUTH PERMIAN MIDSTREAM LLC; [945218] WTG NORTH PERMIAN MIDSTREAM LLC; [836041] TARGA PL MID-CONT WESTTEX LLC; [36586] ATLAS PL MID-CONT. WESTTEX, LLC; [102508] ETC SOUTH PERMIAN MIDSTREAM LLC; [877066] UNION TEXAS PRODUCTS CORPORATION; [230719] DUKE ENERGY FIELD SERVICES, LP; [945227] WTG GAS PROCESSING, L.P.; [663680] PHILLIPS PETROLEUM COMPANY; [877060] UNION TEXAS PETROLEUM CORP.; [195918] DCP MIDSTREAM, LP; [913450] WGR, INC.",0.09,5,5,90.8,"Pioneer Natural Resources USA, Inc. (0.945)",Corpus Christi,1,0.945
CH4_1B2_250m_-101.93921_31.58171,20.131003697491238,90.59,3,2021-10-08,2024-10-09,31.58171,-101.93921,461-39944,"PIONEER NATURAL RES. USA, INC.","[836044] TARGA PIPELINE MID-CONTINENT LLC; [36586] ATLAS PL MID-CONT. WESTTEX, LLC; [836041] TARGA PL MID-CONT WESTTEX LLC",0.22,3,2,64.8,"Pioneer Natural Resources USA, Inc. (0.945)",Corpus Christi,1,0.945
CH4_1B2_250m_-101.83996_31.94654,3.649013000701555,80.28,2,2024-10-09,2024-10-09,31.94654,-101.83996,329-37005,"PIONEER NATURAL RES. USA, INC.","[663680] PHILLIPS PETROLEUM COMPANY; [913450] WGR, INC.; [36586] ATLAS PL MID-CONT. WESTTEX, LLC; [836041] TARGA PL MID-CONT WESTTEX LLC; [661637] PHILLIPS 66 NATURAL GAS COMPANY; [319471] GPM GAS CORPORATION",0.16,17,17,78.7,"Pioneer Natural Resources USA, Inc. (0.945)",Corpus Christi,1,0.945
CH4_1B2_250m_-101.72860_31.49200,20.012736055363323,80.05,4,2024-10-01,2024-10-09,31.492,-101.7286,383-34323,"PIONEER NATURAL RES. USA, INC.","[836041] TARGA PL MID-CONT WESTTEX LLC; [36586] ATLAS PL MID-CONT. WESTTEX, LLC; [913450] WGR, INC.",0.38,1,1,73.1,"Pioneer Natural Resources USA, Inc. (0.945)",Corpus Christi,1,0.945
CH4_1B2_250m_-101.90373_31.43444,13.283169169576315,66.42,2,2020-07-18,2024-10-09,31.43444,-101.90373,461-38677,"PIONEER NATURAL RES. USA, INC.",[836044] TARGA PIPELINE MID-CONTINENT LLC; [36584] ATLAS PIPELINE MID-CONTINENT LLC,0.44,2,2,66.3,"Pioneer Natural Resources USA, Inc. (0.945)",Corpus Christi,1,0.945
CH4_1B2_250m_-101.73329_31.70012,7.279242925386139,65.51,3,2024-10-01,2024-10-09,31.70012,-101.73329,173-31323,"PIONEER NATURAL RES. USA, INC.","[36586] ATLAS PL MID-CONT. WESTTEX, LLC; [913450] WGR, INC.",0.15,4,4,86.6,"Pioneer Natural Resources USA, Inc. (0.945)",Corpus Christi,1,0.945
CH4_1B2_250m_-101.76073_32.21157,3.5374737669241956,63.67,1,2024-10-09,2024-10-09,32.21157,-101.76073,317-32590,"PIONEER NATURAL RES. USA, INC.","[661637] PHILLIPS 66 NATURAL GAS COMPANY; [319471] GPM GAS CORPORATION; [319468] GPM GAS COMPANY, LLC; [945218] WTG NORTH PERMIAN MIDSTREAM LLC; [195959] DCP OPERATING COMPANY, LP; [230719] DUKE ENERGY FIELD SERVICES, LP; [663680] PHILLIPS PETROLEUM COMPANY; [195918] DCP MIDSTREAM, LP",0.12,13,1,35.8,"Pioneer Natural Resources USA, Inc. (0.945)",Corpus Christi,1,0.945
CH4_1B2_250m_-101.81143_32.25830,3.3295173454304257,63.26,1,2024-10-09,2024-10-09,32.2583,-101.81143,317-42760,"PIONEER NATURAL RES. USA, INC.",[102493] ETC NORTH PERMIAN MIDSTREAM LLC; [252017] ENERGY TRANSFER COMPANY; [945218] WTG NORTH PERMIAN MIDSTREAM LLC,0.35,14,9,47.8,"Pioneer Natural Resources USA, Inc. (0.945)",Corpus Christi,1,0.945
CH4_1B2_250m_-101.96108_31.48348,15.377608495474101,61.51,1,2024-10-09,2024-10-09,31.48348,-101.96108,461-31961,"PIONEER NATURAL RES. USA, INC.","[911907] WESTERN GAS RESOURCES TEXAS LLC; [836041] TARGA PL MID-CONT WESTTEX LLC; [911908] WESTERN GAS RESOURCES-TEXAS,INC.; [36584] ATLAS PIPELINE MID-CONTINENT LLC; [836044] TARGA PIPELINE MID-CONTINENT LLC",0.08,1,1,94.1,"Pioneer Natural Resources USA, Inc. (0.945)",Corpus Christi,1,0.945
CH4_1B2_250m_-101.77177_32.18487,1.1840327668557757,21.31,1,2024-10-09,2024-10-09,32.18487,-101.77177,317-42234,CHEVRON U. S. A. INC.,[252017] ENERGY TRANSFER COMPANY,0.32,3,3,74.9,"Chevron U.S.A. Inc (""Chevron"") (0.866)",Corpus Christi,1,0.866
CH4_1B2_250m_-101.75826_31.65306,0.7773645770565898,15.55,1,2024-10-09,2024-10-09,31.65306,-101.75826,173-906,"PIONEER NATURAL RES. USA, INC.","[36586] ATLAS PL MID-CONT. WESTTEX, LLC; [913450] WGR, INC.; [250300] EL PASO NATURAL GAS COMPANY; [911905] WESTERN GAS PROCESSORS, LTD.; [836041] TARGA PL MID-CONT WESTTEX LLC",0.43,2,1,41.7,"Pioneer Natural Resources USA, Inc. (0.945)",Corpus Christi,1,0.945
CH4_1B2_250m_-101.68245_31.85717,NULL,NULL,1,2024-10-09,2024-10-09,31.85717,-101.68245,173-31627,"PIONEER NATURAL RES. USA, INC.","[250300] EL PASO NATURAL GAS COMPANY; [911905] WESTERN GAS PROCESSORS, LTD.; [836041] TARGA PL MID-CONT WESTTEX LLC; [36586] ATLAS PL MID-CONT. WESTTEX, LLC; [913450] WGR, INC.; [836044] TARGA PIPELINE MID-CONTINENT LLC",0.32,2,1,49.5,"Pioneer Natural Resources USA, Inc. (0.945)",Corpus Christi,1,0.945
CH4_1B2_250m_-104.09680_31.97407,43.28381461267206,375.13,8,2020-07-23,2024-10-08,31.97407,-104.0968,109-32853,CHEVRON U. S. A. INC.,[148113] CHEVRON U. S. A. INC.,0.09,2,2,90.8,"Chevron U.S.A. Inc (""Chevron"") (0.866)",Corpus Christi,1,0.866
CH4_1B2_250m_-104.32108_31.95771,47.655652079422296,309.76,3,2024-10-07,2024-10-08,31.95771,-104.32108,109-33303,CHEVRON U. S. A. INC.,NULL,0.18,1,1,87.6,"Chevron U.S.A. Inc (""Chevron"") (0.866)",Corpus Christi,1,0.866
CH4_1B2_250m_-103.65517_31.99800,41.543086848208645,189.91,11,2019-10-16,2024-10-04,31.998,-103.65517,301-32389,"EOG RESOURCES, INC.","[253368] ENTERPRISE PRODUCTS OPERATINGLLC; [252017] ENERGY TRANSFER COMPANY; [211476] DELAWARE BASIN MIDSTREAM, LLC; [101271] DELAWARE BASIN MIDSTREAM LLC; [698769] REGENCY FIELD SERVICES LLC",0.19,11,11,76.4,"EOG Resources, Inc. (1.0); EOG Resources, Inc. (1.0); EOG Resources, Inc. (1.0); Enterprise Products Operating LLC (0.994)",Sabine Pass; CCL Stage III; Corpus Christi; Freeport LNG,2,1.0
CH4_1B2_250m_-103.90924_31.94926,1.2577106384679213,35.22,1,2024-10-04,2024-10-04,31.94926,-103.90924,301-37044,APACHE CORPORATION,[253368] ENTERPRISE PRODUCTS OPERATINGLLC,0.52,2,2,62.0,Apache Corporation (1.0); Apache Corporation (1.0); Enterprise Products Operating LLC (0.994),Freeport LNG; Corpus Christi; CCL Stage III,2,1.0
CH4_1B2_250m_-103.78916_31.91223,0.42185389502352666,10.55,1,2024-10-04,2024-10-04,31.91223,-103.78916,301-31599,SHELL WESTERN E&P,"[773822] SHELL ENERGY NORTH AM. (US), LP; [147710] CHESAPEAKE ENERGY MARKETING, INC",0.04,3,2,77.4,"Chesapeake Energy Marketing, LLC (0.975); Shell Energy North America (US), L.P. (0.942); Shell Energy North America (US), L.P. (0.942)",Corpus Christi; Sabine Pass,2,0.975
CH4_1B2_250m_-103.94217_31.61318,16.87989498424289,63.3,4,2020-07-15,2024-10-03,31.61318,-103.94217,389-33995,"EOG RESOURCES, INC.","[252017] ENERGY TRANSFER COMPANY; [805477] SOUTHERN UNION GAS SERVICES, LTD; [698769] REGENCY FIELD SERVICES LLC",0.11,7,7,85.4,"EOG Resources, Inc. (1.0); EOG Resources, Inc. (1.0); EOG Resources, Inc. (1.0)",Corpus Christi; CCL Stage III; Sabine Pass,1,1.0
CH4_1B2_250m_-103.82007_31.59881,13.617570914119373,272.35,1,2024-10-02,2024-10-02,31.59881,-103.82007,389-34056,"EOG RESOURCES, INC.","[805477] SOUTHERN UNION GAS SERVICES, LTD; [252017] ENERGY TRANSFER COMPANY; [253368] ENTERPRISE PRODUCTS OPERATINGLLC; [698769] REGENCY FIELD SERVICES LLC",0.15,9,9,82.2,"EOG Resources, Inc. (1.0); EOG Resources, Inc. (1.0); EOG Resources, Inc. (1.0); Enterprise Products Operating LLC (0.994)",Corpus Christi; Freeport LNG; CCL Stage III; Sabine Pass,2,1.0
CH4_1B2_250m_-103.95003_31.99997,7.464324046701598,111.96,2,2024-05-12,2024-10-02,31.99997,-103.95003,301-30654,WAGNER OIL COMPANY,"[616195] NUEVO MIDSTREAM, LLC; [172232] CONOCOPHILLIPS COMPANY; [172230] CONOCO INC.",0.19,2,2,83.6,ConocoPhillips Company (1.0); ConocoPhillips Company (1.0); ConocoPhillips Company (1.0),Freeport LNG; Calcasieu Pass; Corpus Christi,1,1.0
CH4_1B2_250m_-103.91115_31.83886,6.749194727917011,84.36,2,2021-08-06,2024-10-02,31.83886,-103.91115,389-32055,SATURN OIL AND DEVELOPMENT CORP.,[172230] CONOCO INC.; [172232] CONOCOPHILLIPS COMPANY,0.21,1,1,85.2,ConocoPhillips Company (1.0); ConocoPhillips Company (1.0); ConocoPhillips Company (1.0),Calcasieu Pass; Freeport LNG; Corpus Christi,1,1.0
CH4_1B2_250m_-103.83215_31.56576,4.330840529831443,64.96,1,2024-10-02,2024-10-02,31.56576,-103.83215,389-34212,CIMAREX ENERGY CO.,[698769] REGENCY FIELD SERVICES LLC; [253368] ENTERPRISE PRODUCTS OPERATINGLLC; [153438] CIMAREX ENERGY CO.,0.32,1,1,77.5,"Cimarex Energy Co. (1.0); Enterprise Products Operating LLC (0.994); CIMA Energy, LP (0.877)",Freeport LNG; Corpus Christi,3,1.0
CH4_1B2_250m_-101.88511_31.80229,47.590107657066206,1046.98,1,2024-10-01,2024-10-01,31.80229,-101.88511,329-47367,"PIONEER NATURAL RES. USA, INC.",[836041] TARGA PL MID-CONT WESTTEX LLC,0.13,26,26,81.0,"Pioneer Natural Resources USA, Inc. (0.945)",Corpus Christi,1,0.945
CH4_1B2_250m_-101.70663_31.78744,418.99430199006235,837.99,3,2019-10-10,2024-10-01,31.78744,-101.70663,173-38742,"PIONEER NATURAL RES. USA, INC.",[836041] TARGA PL MID-CONT WESTTEX LLC,0.1,17,3,41.8,"Pioneer Natural Resources USA, Inc. (0.945)",Corpus Christi,1,0.945
CH4_1B2_250m_-101.66295_32.32122,141.91915195278983,567.68,1,2024-10-01,2024-10-01,32.32122,-101.66295,227-34071,SM ENERGY COMPANY,"[100348] ENT NAVITAS MDSTRM MDLND BAS LLC; [601188] NAVITAS MDSTR MIDLAND BASIN, LLC; [253368] ENTERPRISE PRODUCTS OPERATINGLLC; [195959] DCP OPERATING COMPANY, LP; [195918] DCP MIDSTREAM, LP",0.01,26,1,40.9,Enterprise Products Operating LLC (0.994); BP Energy Company (0.922); BP Energy Company (0.922); BP Energy Company (0.922),Freeport LNG; Calcasieu Pass; Sabine Pass,2,0.994
CH4_1B2_250m_-101.76394_31.88162,25.451880860798415,534.49,1,2024-10-01,2024-10-01,31.88162,-101.76394,173-38822,DIAMONDBACK E&P LLC,[253368] ENTERPRISE PRODUCTS OPERATINGLLC; [100348] ENT NAVITAS MDSTRM MDLND BAS LLC,0.39,11,11,62.6,Enterprise Products Operating LLC (0.994),Freeport LNG,1,0.994
CH4_1B2_250m_-101.69385_31.44659,55.24686485099532,276.23,1,2024-10-01,2024-10-01,31.44659,-101.69385,383-35650,APACHE CORPORATION,"[36586] ATLAS PL MID-CONT. WESTTEX, LLC; [913450] WGR, INC.; [250300] EL PASO NATURAL GAS COMPANY; [911905] WESTERN GAS PROCESSORS, LTD.; [836041] TARGA PL MID-CONT WESTTEX LLC",0.29,1,1,80.0,Apache Corporation (1.0); Apache Corporation (1.0),CCL Stage III; Corpus Christi,1,1.0
CH4_1B2_250m_-101.96323_31.68648,48.17548716591497,272.99,5,2023-08-15,2024-10-01,31.68648,-101.96323,329-39089,XTO ENERGY INC.,"[836041] TARGA PL MID-CONT WESTTEX LLC; [195918] DCP MIDSTREAM, LP; [913450] WGR, INC.; [36586] ATLAS PL MID-CONT. WESTTEX, LLC",0.3,4,1,38.3,"XTO Energy Inc. (f/k/a Cross Timbers Energy Services, Inc.) (0.851)",Corpus Christi,1,0.851
CH4_1B2_250m_-101.61177_31.88655,135.43120497173223,270.86,1,2024-10-01,2024-10-01,31.88655,-101.61177,173-32482,XTO ENERGY INC.,"[195959] DCP OPERATING COMPANY, LP",0.29,16,2,25.7,"XTO Energy Inc. (f/k/a Cross Timbers Energy Services, Inc.) (0.851)",Corpus Christi,1,0.851
CH4_1B2_250m_-101.92024_31.86807,39.510150454759355,250.23,5,2023-08-17,2024-10-01,31.86807,-101.92024,329-34309,"PIONEER NATURAL RES. USA, INC.","[250300] EL PASO NATURAL GAS COMPANY; [911905] WESTERN GAS PROCESSORS, LTD.; [836041] TARGA PL MID-CONT WESTTEX LLC; [36586] ATLAS PL MID-CONT. WESTTEX, LLC; [913450] WGR, INC.",0.39,2,1,44.8,"Pioneer Natural Resources USA, Inc. (0.945)",Corpus Christi,1,0.945
CH4_1B2_250m_-101.98598_31.54510,80.94473398700727,242.83,1,2024-10-01,2024-10-01,31.5451,-101.98598,461-40531,APACHE CORPORATION,[836044] TARGA PIPELINE MID-CONTINENT LLC,0.18,10,5,55.7,Apache Corporation (1.0); Apache Corporation (1.0),Corpus Christi; CCL Stage III,1,1.0
CH4_1B2_250m_-101.65034_31.58269,80.07410832326867,240.22,2,2024-10-01,2024-10-01,31.58269,-101.65034,383-35536,"PIONEER NATURAL RES. USA, INC.","[319471] GPM GAS CORPORATION; [319468] GPM GAS COMPANY, LLC; [250300] EL PASO NATURAL GAS COMPANY; [836041] TARGA PL MID-CONT WESTTEX LLC; [877066] UNION TEXAS PRODUCTS CORPORATION; [230719] DUKE ENERGY FIELD SERVICES, LP; [36586] ATLAS PL MID-CONT. WESTTEX, LLC; [195959] DCP OPERATING COMPANY, LP; [913450] WGR, INC.; [877060] UNION TEXAS PETROLEUM CORP.; [195918] DCP MIDSTREAM, LP",0.31,4,2,50.3,"Pioneer Natural Resources USA, Inc. (0.945)",Corpus Christi,1,0.945
CH4_1B2_250m_-101.85152_32.31174,9.826107733106587,196.52,1,2024-10-01,2024-10-01,32.31174,-101.85152,317-41732,XTO ENERGY INC.,"[945227] WTG GAS PROCESSING, L.P.; [252017] ENERGY TRANSFER COMPANY",0.34,14,12,58.9,"XTO Energy Inc. (f/k/a Cross Timbers Energy Services, Inc.) (0.851)",Corpus Christi,1,0.851
CH4_1B2_250m_-101.94377_31.74343,33.77766418416428,194.22,4,2021-10-06,2024-10-01,31.74343,-101.94377,329-33319,CHEVRON U. S. A. INC.,[148113] CHEVRON U. S. A. INC.; [844118] TEXACO E & P INC.,0.38,3,2,53.8,"Chevron U.S.A. Inc (""Chevron"") (0.866)",Corpus Christi,1,0.866
CH4_1B2_250m_-101.63721_31.70013,63.027976048710315,189.08,2,2024-10-01,2024-10-01,31.70013,-101.63721,173-32758,"PIONEER NATURAL RES. USA, INC.","[836041] TARGA PL MID-CONT WESTTEX LLC; [250300] EL PASO NATURAL GAS COMPANY; [911905] WESTERN GAS PROCESSORS, LTD.; [913450] WGR, INC.; [36584] ATLAS PIPELINE MID-CONTINENT LLC; [836044] TARGA PIPELINE MID-CONTINENT LLC",0.12,8,2,47.2,"Pioneer Natural Resources USA, Inc. (0.945)",Corpus Christi,1,0.945
CH4_1B2_250m_-101.83634_32.01748,7.311087181927382,160.84,1,2024-10-01,2024-10-01,32.01748,-101.83634,329-40275,"OXYROCK OPERATING, LLC","[601188] NAVITAS MDSTR MIDLAND BASIN, LLC; [253368] ENTERPRISE PRODUCTS OPERATINGLLC; [836041] TARGA PL MID-CONT WESTTEX LLC",0.0,2,1,71.7,Enterprise Products Operating LLC (0.994),Freeport LNG,1,0.994
CH4_1B2_250m_-101.72329_32.22425,37.973055680125654,151.89,1,2024-10-01,2024-10-01,32.22425,-101.72329,317-34718,"PIONEER NATURAL RES. USA, INC.","[945218] WTG NORTH PERMIAN MIDSTREAM LLC; [945227] WTG GAS PROCESSING, L.P.; [102493] ETC NORTH PERMIAN MIDSTREAM LLC",0.4,3,2,52.0,"Pioneer Natural Resources USA, Inc. (0.945)",Corpus Christi,1,0.945
CH4_1B2_250m_-101.90319_32.09740,17.041314790705957,119.29,3,2021-08-04,2024-10-01,32.0974,-101.90319,317-33472,"PIONEER NATURAL RES. USA, INC.","[36586] ATLAS PL MID-CONT. WESTTEX, LLC; [913450] WGR, INC.; [319471] GPM GAS CORPORATION; [661637] PHILLIPS 66 NATURAL GAS COMPANY",0.52,1,1,65.0,"Pioneer Natural Resources USA, Inc. (0.945)",Corpus Christi,1,0.945
CH4_1B2_250m_-101.79958_32.31004,5.0627335786165775,91.13,1,2024-10-01,2024-10-01,32.31004,-101.79958,317-43931,XTO ENERGY INC.,[945218] WTG NORTH PERMIAN MIDSTREAM LLC; [252017] ENERGY TRANSFER COMPANY,0.02,16,12,76.4,"XTO Energy Inc. (f/k/a Cross Timbers Energy Services, Inc.) (0.851)",Corpus Christi,1,0.851
CH4_1B2_250m_-101.87090_31.65269,4.106327232816532,90.34,1,2024-10-01,2024-10-01,31.65269,-101.8709,461-33026,"PIONEER NATURAL RES. USA, INC.","[877066] UNION TEXAS PRODUCTS CORPORATION; [36586] ATLAS PL MID-CONT. WESTTEX, LLC; [913450] WGR, INC.; [877060] UNION TEXAS PETROLEUM CORP.; [663680] PHILLIPS PETROLEUM COMPANY; [250300] EL PASO NATURAL GAS COMPANY; [836041] TARGA PL MID-CONT WESTTEX LLC",0.26,1,1,81.6,"Pioneer Natural Resources USA, Inc. (0.945)",Corpus Christi,1,0.945
CH4_1B2_250m_-101.69525_31.46920,13.182463850070212,52.73,2,2024-10-01,2024-10-01,31.4692,-101.69525,383-35367,"PIONEER NATURAL RES. USA, INC.","[36586] ATLAS PL MID-CONT. WESTTEX, LLC; [913450] WGR, INC.; [36584] ATLAS PIPELINE MID-CONTINENT LLC; [836044] TARGA PIPELINE MID-CONTINENT LLC; [250300] EL PASO NATURAL GAS COMPANY",0.26,3,1,45.7,"Pioneer Natural Resources USA, Inc. (0.945)",Corpus Christi,1,0.945
CH4_1B2_250m_-101.74615_31.48367,5.120558056229962,46.09,1,2024-10-01,2024-10-01,31.48367,-101.74615,383-34357,"PIONEER NATURAL RES. USA, INC.","[836041] TARGA PL MID-CONT WESTTEX LLC; [913450] WGR, INC.; [36586] ATLAS PL MID-CONT. WESTTEX, LLC",0.39,1,1,72.9,"Pioneer Natural Resources USA, Inc. (0.945)",Corpus Christi,1,0.945
CH4_NA_250m_-102.09166_32.30557,317.00466558465257,2219.03,1,2024-08-12,2024-08-12,32.30557,-102.09166,317-35860,"PIONEER NATURAL RES. USA, INC.","[230719] DUKE ENERGY FIELD SERVICES, LP; [945227] WTG GAS PROCESSING, L.P.; [102493] ETC NORTH PERMIAN MIDSTREAM LLC; [319471] GPM GAS CORPORATION; [319468] GPM GAS COMPANY, LLC; [253195] ENRON GAS PROCESSING COMPANY; [945218] WTG NORTH PERMIAN MIDSTREAM LLC",0.15,3,2,70.1,"Pioneer Natural Resources USA, Inc. (0.945)",Corpus Christi,1,0.945
CH4_1B2_250m_-101.82795_31.43289,533.0360281641671,12259.83,1,2024-07-27,2024-07-27,31.43289,-101.82795,461-39662,"PIONEER NATURAL RES. USA, INC.","[877066] UNION TEXAS PRODUCTS CORPORATION; [230719] DUKE ENERGY FIELD SERVICES, LP; [36586] ATLAS PL MID-CONT. WESTTEX, LLC; [195959] DCP OPERATING COMPANY, LP; [913450] WGR, INC.; [663680] PHILLIPS PETROLEUM COMPANY; [877060] UNION TEXAS PETROLEUM CORP.; [195918] DCP MIDSTREAM, LP; [319471] GPM GAS CORPORATION; [319468] GPM GAS COMPANY, LLC; [250300] EL PASO NATURAL GAS COMPANY; [661637] PHILLIPS 66 NATURAL GAS COMPANY; [836041] TARGA PL MID-CONT WESTTEX LLC",0.32,1,1,77.3,"Pioneer Natural Resources USA, Inc. (0.945)",Corpus Christi,1,0.945
CH4_1B2_250m_-101.97851_31.66960,267.3960569850408,6952.3,1,2024-07-27,2024-07-27,31.6696,-101.97851,329-35586,"PIONEER NATURAL RES. USA, INC.","[911908] WESTERN GAS RESOURCES-TEXAS,INC.; [911907] WESTERN GAS RESOURCES TEXAS LLC; [836041] TARGA PL MID-CONT WESTTEX LLC",0.32,4,2,49.3,"Pioneer Natural Resources USA, Inc. (0.945)",Corpus Christi,1,0.945
CH4_1B2_250m_-101.70342_31.54273,257.288196125,514.58,3,2019-10-10,2024-07-27,31.54273,-101.70342,383-33662,APACHE CORPORATION,"[195959] DCP OPERATING COMPANY, LP; [230719] DUKE ENERGY FIELD SERVICES, LP; [195918] DCP MIDSTREAM, LP; [661637] PHILLIPS 66 NATURAL GAS COMPANY; [319471] GPM GAS CORPORATION; [319468] GPM GAS COMPANY, LLC; [945219] WTG SOUTH PERMIAN MIDSTREAM LLC",0.14,13,1,34.2,Apache Corporation (1.0); Apache Corporation (1.0),Corpus Christi; CCL Stage III,1,1.0
CH4_1B2_250m_-99.61157_28.33545,659.8800167017149,3299.4,1,2024-06-27,2024-06-27,28.33545,-99.61157,127-38637,"GULFTEX ENERGY, LLC",[463345] KINDER MORGAN TEXAS PIPELINE LLC,0.34,6,3,44.5,"Kinder Morgan Tejas Pipeline LLC (0.987); Kinder Morgan Tejas Pipeline, LLC (KMTP) (0.949); Kinder Morgan Tejas Pipeline LLC & Kinder Morgan Texas Pipeline LLC (0.886)",Freeport LNG; Corpus Christi,3,0.987
CH4_1B2_250m_-103.95984_31.99136,61.41203008818633,147.39,13,2019-10-06,2024-05-13,31.99136,-103.95984,301-30631,"GRACE PETROLEUM OPERATING, LLC","[616195] NUEVO MIDSTREAM, LLC; [172230] CONOCO INC.; [172232] CONOCOPHILLIPS COMPANY",0.02,3,2,78.7,ConocoPhillips Company (1.0); ConocoPhillips Company (1.0); ConocoPhillips Company (1.0),Freeport LNG; Corpus Christi; Calcasieu Pass,1,1.0
CH4_1B2_250m_-104.18715_31.99616,13.13955351895785,381.05,1,2024-05-08,2024-05-08,31.99616,-104.18715,109-32817,CHEVRON U. S. A. INC.,[148113] CHEVRON U. S. A. INC.,0.3,4,4,75.8,"Chevron U.S.A. Inc (""Chevron"") (0.866)",Corpus Christi,1,0.866
CH4_1B2_250m_-104.00989_32.00061,19.919513214414906,179.28,3,2019-10-06,2024-05-01,32.00061,-104.00989,389-33923,CONOCOPHILLIPS COMPANY,"[211476] DELAWARE BASIN MIDSTREAM, LLC; [101271] DELAWARE BASIN MIDSTREAM LLC",0.19,1,1,86.4,ConocoPhillips Company (1.0); ConocoPhillips Company (1.0); ConocoPhillips Company (1.0),Freeport LNG; Corpus Christi; Calcasieu Pass,1,1.0
CH4_1B2_250m_-98.80441_28.25432,322.291721449729,1933.75,1,2024-03-26,2024-03-26,28.25432,-98.80441,283-34432,"SIERRA RESOURCES, LLC",[463345] KINDER MORGAN TEXAS PIPELINE LLC,0.03,1,1,97.7,"Kinder Morgan Tejas Pipeline LLC (0.987); Kinder Morgan Tejas Pipeline, LLC (KMTP) (0.949); Kinder Morgan Tejas Pipeline LLC & Kinder Morgan Texas Pipeline LLC (0.886)",Corpus Christi; Freeport LNG,3,0.987
CH4_1B2_250m_-101.77647_31.37523,450.99997318082114,1202.67,3,2020-07-13,2024-02-12,31.37523,-101.77647,383-31868,"PIONEER NATURAL RES. USA, INC.","[195959] DCP OPERATING COMPANY, LP; [614500] NORTHERN NATURAL GAS CO.; [821796] STILES GASOLINE PLANT; [202491] DAVIS GAS PROCESSING, INC.",0.3,12,11,64.8,"Pioneer Natural Resources USA, Inc. (0.945)",Corpus Christi,1,0.945
CH4_1B2_250m_-101.55181_32.28133,847.1335144082266,2117.83,2,2019-10-21,2024-01-27,32.28133,-101.55181,227-36352,OVINTIV USA INC.,"[601188] NAVITAS MDSTR MIDLAND BASIN, LLC; [253368] ENTERPRISE PRODUCTS OPERATINGLLC; [195918] DCP MIDSTREAM, LP; [195959] DCP OPERATING COMPANY, LP",0.51,1,1,65.0,Enterprise Products Operating LLC (0.994),Freeport LNG,1,0.994
CH4_1B2_250m_-103.57245_31.93867,73.2267187203255,1903.89,1,2023-12-24,2023-12-24,31.93867,-103.57245,301-36287,XTO ENERGY INC.,[252017] ENERGY TRANSFER COMPANY,0.31,13,13,68.0,"XTO Energy Inc. (f/k/a Cross Timbers Energy Services, Inc.) (0.851)",Corpus Christi,1,0.851
CH4_1B2_250m_-103.63614_31.85081,119.0617723592233,476.25,5,2019-10-23,2023-12-24,31.85081,-103.63614,301-35840,APACHE CORPORATION,"[101063] KINETIK HOLDINGS LP; [758382] SCM OPS, LLC; [101271] DELAWARE BASIN MIDSTREAM LLC",0.29,6,5,64.4,Apache Corporation (1.0); Apache Corporation (1.0),CCL Stage III; Corpus Christi,1,1.0
CH4_1B2_250m_-101.45699_32.32467,890.691482984651,3562.77,2,2023-07-31,2023-12-01,32.32467,-101.45699,227-39448,APACHE CORPORATION,"[102487] ETC GAS PROCESSING, LLC; [945227] WTG GAS PROCESSING, L.P.",0.3,17,6,36.4,Apache Corporation (1.0); Apache Corporation (1.0),CCL Stage III; Corpus Christi,1,1.0
CH4_1B2_250m_-103.48867_31.24350,298.535316739225,1492.68,1,2023-10-20,2023-10-20,31.2435,-103.48867,389-40198,APACHE CORPORATION,"[238465] EAGLECLAW MIDSTREAM VENTURES,LLC; [252017] ENERGY TRANSFER COMPANY",0.28,7,7,73.5,Apache Corporation (1.0); Apache Corporation (1.0),Corpus Christi; CCL Stage III,1,1.0
CH4_1B2_250m_-103.97227_31.99862,87.08123208560475,1219.14,3,2020-07-23,2023-10-20,31.99862,-103.97227,301-30436,"WPX ENERGY PERMIAN, LLC","[172232] CONOCOPHILLIPS COMPANY; [230719] DUKE ENERGY FIELD SERVICES, LP; [172230] CONOCO INC.; [862623] TORCH PRODUCTION COMPANY, LLC; [862520] TORCH ENERGY SERVICES, INC.; [616195] NUEVO MIDSTREAM, LLC",0.37,2,1,45.9,ConocoPhillips Company (1.0); ConocoPhillips Company (1.0); ConocoPhillips Company (1.0),Corpus Christi; Freeport LNG; Calcasieu Pass,1,1.0
CH4_1B2_250m_-101.36033_31.30592,1999.8100138048967,1999.81,3,2019-10-19,2023-09-23,31.30592,-101.36033,383-32290,"PIONEER NATURAL RES. USA, INC.","[836036] TARGA TEXAS FIELD SERVICES LP; [913450] WGR, INC.; [836037] TARGA MIDSTREAM SERVICES LLC; [36586] ATLAS PL MID-CONT. WESTTEX, LLC; [836041] TARGA PL MID-CONT WESTTEX LLC; [250300] EL PASO NATURAL GAS COMPANY; [911905] WESTERN GAS PROCESSORS, LTD.",0.3,2,2,76.1,"Pioneer Natural Resources USA, Inc. (0.945)",Corpus Christi,1,0.945
CH4_1B2_250m_-103.54729_31.94007,83.8258064733275,1760.34,2,2023-08-29,2023-08-29,31.94007,-103.54729,301-34795,XTO ENERGY INC.,[252017] ENERGY TRANSFER COMPANY,0.25,13,13,72.2,"XTO Energy Inc. (f/k/a Cross Timbers Energy Services, Inc.) (0.851)",Corpus Christi,1,0.851
CH4_1B2_250m_-103.42585_31.98223,357.6665260169498,858.4,5,2019-10-21,2023-08-29,31.98223,-103.42585,301-32633,COG OPERATING LLC,"[628544] OUTRIGGER DELAWARE OPERATING,LLC; [836022] TARGA DELAWARE LLC",0.32,1,1,77.8,Targa Gas Marketing LLC (0.863),Corpus Christi,1,0.863
CH4_1B2_250m_-103.37543_31.90527,87.8298843660686,790.47,2,2023-08-29,2023-08-29,31.90527,-103.37543,301-33870,PDEH LLC,[836022] TARGA DELAWARE LLC,0.15,2,2,86.7,Targa Gas Marketing LLC (0.863),Corpus Christi,1,0.863
CH4_1B2_250m_-103.54285_31.82798,107.72409870445048,292.39,9,2019-10-06,2023-08-29,31.82798,-103.54285,301-30261,"LAST MILE PRODUCTION, LLC","[250202] EL PASO FIELD SERVICES, L.P.; [619229] OGE ENERGY RESOURCES, INC.; [425640] INTRATEX GAS COMPANY; [572390] MOBIL NATURAL GAS INC.; [172232] CONOCOPHILLIPS COMPANY; [253368] ENTERPRISE PRODUCTS OPERATINGLLC; [638155] PANHANDLE GAS COMPANY; [385762] HIGHLAND ENERGY COMPANY; [572550] MOBIL PRODUCING TX. & N.M. INC.",0.09,2,2,90.7,ConocoPhillips Company (1.0); ConocoPhillips Company (1.0); ConocoPhillips Company (1.0); Enterprise Products Operating LLC (0.994),Calcasieu Pass; Freeport LNG; Corpus Christi,2,1.0
CH4_1B2_250m_-103.45841_31.85304,28.96980613040996,289.7,4,2021-10-15,2023-08-29,31.85304,-103.45841,301-34961,COG OPERATING LLC,[252017] ENERGY TRANSFER COMPANY; [836022] TARGA DELAWARE LLC,0.08,5,5,91.6,Targa Gas Marketing LLC (0.863),Corpus Christi,1,0.863
CH4_1B2_250m_-103.47087_31.95789,22.24584885418451,233.58,2,2021-08-06,2023-08-29,31.95789,-103.47087,301-33893,COG OPERATING LLC,[252017] ENERGY TRANSFER COMPANY; [836022] TARGA DELAWARE LLC,0.08,2,2,91.3,Targa Gas Marketing LLC (0.863),Corpus Christi,1,0.863
CH4_1B2_250m_-103.34372_31.93012,15.541443293510952,139.87,1,2023-08-29,2023-08-29,31.93012,-103.34372,301-35228,COG OPERATING LLC,[836022] TARGA DELAWARE LLC,0.06,4,2,67.6,Targa Gas Marketing LLC (0.863),Corpus Christi,1,0.863
CH4_1B2_250m_-103.45913_31.88279,11.43895294666645,114.39,2,2021-08-05,2023-08-29,31.88279,-103.45913,301-32134,COG OPERATING LLC,[836022] TARGA DELAWARE LLC; [836041] TARGA PL MID-CONT WESTTEX LLC,0.06,3,3,92.8,Targa Gas Marketing LLC (0.863),Corpus Christi,1,0.863
CH4_1B2_250m_-103.84217_31.90981,15.979817871829466,143.82,3,2021-08-06,2023-08-26,31.90981,-103.84217,301-31367,"WPX ENERGY PERMIAN, LLC",[148113] CHEVRON U. S. A. INC.,0.42,1,1,70.7,"Chevron U.S.A. Inc (""Chevron"") (0.866)",Corpus Christi,1,0.866
CH4_1B2_250m_-102.15636_31.69971,191.83042138980102,575.49,5,2023-08-15,2023-08-25,31.69971,-102.15636,329-33169,DIAMONDBACK E&P LLC,"[40798] BP AMERICA PRODUCTION COMPANY; [29347] ARCO PERMIAN; [102545] ENTERPRISE M B MIDSTREAM LLC; [27200] APACHE CORPORATION; [601188] NAVITAS MDSTR MIDLAND BASIN, LLC",0.06,4,2,68.1,Apache Corporation (1.0); Apache Corporation (1.0); Enterprise Products Operating LLC (0.86),Freeport LNG; CCL Stage III; Corpus Christi,2,1.0
CH4_1B2_250m_-101.95357_31.66792,120.70736472466535,513.01,5,2019-10-25,2023-08-25,31.66792,-101.95357,329-32311,XTO ENERGY INC.,"[36586] ATLAS PL MID-CONT. WESTTEX, LLC; [913450] WGR, INC.; [911905] WESTERN GAS PROCESSORS, LTD.; [836041] TARGA PL MID-CONT WESTTEX LLC",0.29,14,14,70.0,"XTO Energy Inc. (f/k/a Cross Timbers Energy Services, Inc.) (0.851)",Corpus Christi,1,0.851
CH4_1B2_250m_-102.09414_31.71826,62.81596999382972,471.12,2,2023-08-16,2023-08-25,31.71826,-102.09414,329-37269,XTO ENERGY INC.,"[195918] DCP MIDSTREAM, LP; [195959] DCP OPERATING COMPANY, LP",0.15,7,2,47.1,"XTO Energy Inc. (f/k/a Cross Timbers Energy Services, Inc.) (0.851)",Corpus Christi,1,0.851
CH4_1B2_250m_-102.12676_31.68747,91.91076154003974,214.46,6,2021-10-06,2023-08-25,31.68747,-102.12676,329-10003,APACHE CORPORATION,[27200] APACHE CORPORATION; [29347] ARCO PERMIAN; [40798] BP AMERICA PRODUCTION COMPANY,0.17,3,2,68.6,Apache Corporation (1.0); Apache Corporation (1.0),CCL Stage III; Corpus Christi,1,1.0
CH4_1B2_250m_-102.13774_31.69295,105.08689222763007,163.47,11,2021-07-31,2023-08-25,31.69295,-102.13774,329-33093,"PIONEER NATURAL RES. USA, INC.",[29347] ARCO PERMIAN; [40798] BP AMERICA PRODUCTION COMPANY; [100348] ENT NAVITAS MDSTRM MDLND BAS LLC; [27200] APACHE CORPORATION,0.33,6,3,44.7,"Apache Corporation (1.0); Apache Corporation (1.0); Pioneer Natural Resources USA, Inc. (0.945)",Corpus Christi; CCL Stage III,2,1.0
CH4_1B2_250m_-101.97478_31.66214,27.441228399804075,146.35,3,2023-08-19,2023-08-25,31.66214,-101.97478,329-43971,XTO ENERGY INC.,[836041] TARGA PL MID-CONT WESTTEX LLC,0.35,10,8,58.8,"XTO Energy Inc. (f/k/a Cross Timbers Energy Services, Inc.) (0.851)",Corpus Christi,1,0.851
CH4_1B2_250m_-102.09871_31.73576,32.475108902791725,121.78,4,2023-08-15,2023-08-25,31.73576,-102.09871,329-32609,OVINTIV USA INC.,[148113] CHEVRON U. S. A. INC.,0.18,2,2,84.2,"Chevron U.S.A. Inc (""Chevron"") (0.866)",Corpus Christi,1,0.866
CH4_1B2_250m_-102.09184_31.72108,19.12809970916656,71.73,4,2023-08-15,2023-08-25,31.72108,-102.09184,329-37501,XTO ENERGY INC.,"[195959] DCP OPERATING COMPANY, LP; [195918] DCP MIDSTREAM, LP",0.23,2,2,81.2,"XTO Energy Inc. (f/k/a Cross Timbers Energy Services, Inc.) (0.851)",Corpus Christi,1,0.851
CH4_1B2_250m_-102.16679_31.71976,13.008751243690694,65.04,3,2023-08-15,2023-08-25,31.71976,-102.16679,329-33849,APACHE CORPORATION,[27200] APACHE CORPORATION; [40798] BP AMERICA PRODUCTION COMPANY; [29347] ARCO PERMIAN,0.34,2,2,73.0,Apache Corporation (1.0); Apache Corporation (1.0),Corpus Christi; CCL Stage III,1,1.0
CH4_1B2_250m_-101.91524_32.48041,165.20136084059789,1652.01,1,2023-08-24,2023-08-24,32.48041,-101.91524,317-33270,DIAMONDBACK E&P LLC,"[844138] TEXACO PRODUCING INC.; [844110] TEXACO INC.; [844118] TEXACO E & P INC.; [945227] WTG GAS PROCESSING, L.P.; [148113] CHEVRON U. S. A. INC.; [302450] GETTY OIL CO.",0.3,3,1,43.0,"Chevron U.S.A. Inc (""Chevron"") (0.866)",Corpus Christi,1,0.866
CH4_1B2_250m_-101.81248_32.32370,604.2857073859838,1141.43,14,2019-09-24,2023-08-24,32.3237,-101.81248,317-41078,XTO ENERGY INC.,"[252017] ENERGY TRANSFER COMPANY; [945227] WTG GAS PROCESSING, L.P.",0.35,8,6,55.9,"XTO Energy Inc. (f/k/a Cross Timbers Energy Services, Inc.) (0.851)",Corpus Christi,1,0.851
CH4_1B2_250m_-102.13294_32.35813,311.65451495092657,1090.79,2,2023-06-08,2023-08-24,32.35813,-102.13294,317-39532,OVINTIV USA INC.,"[945227] WTG GAS PROCESSING, L.P.; [601188] NAVITAS MDSTR MIDLAND BASIN, LLC; [253368] ENTERPRISE PRODUCTS OPERATINGLLC",0.17,16,14,71.9,Enterprise Products Operating LLC (0.994),Freeport LNG,1,0.994
CH4_1B2_250m_-101.92343_31.73544,35.455660538031786,780.02,1,2023-08-24,2023-08-24,31.73544,-101.92343,329-43113,CHEVRON U. S. A. INC.,[836022] TARGA DELAWARE LLC; [252017] ENERGY TRANSFER COMPANY,0.0,14,12,82.8,"Chevron U.S.A. Inc (""Chevron"") (0.866); Targa Gas Marketing LLC (0.863)",Corpus Christi,2,0.866
CH4_1B2_250m_-101.82283_32.32574,79.80039732124476,678.3,4,2023-08-21,2023-08-24,32.32574,-101.82283,317-42295,XTO ENERGY INC.,"[252017] ENERGY TRANSFER COMPANY; [945227] WTG GAS PROCESSING, L.P.",0.31,7,5,57.2,"XTO Energy Inc. (f/k/a Cross Timbers Energy Services, Inc.) (0.851)",Corpus Christi,1,0.851
CH4_1B2_250m_-101.91671_31.64683,14.229535833752243,313.05,1,2023-08-24,2023-08-24,31.64683,-101.91671,461-33056,XTO ENERGY INC.,"[661637] PHILLIPS 66 NATURAL GAS COMPANY; [319471] GPM GAS CORPORATION; [836041] TARGA PL MID-CONT WESTTEX LLC; [36586] ATLAS PL MID-CONT. WESTTEX, LLC; [913450] WGR, INC.",0.03,4,2,69.8,"XTO Energy Inc. (f/k/a Cross Timbers Energy Services, Inc.) (0.851)",Corpus Christi,1,0.851
CH4_1B2_250m_-101.90558_31.64693,44.229348742023646,232.2,4,2023-08-17,2023-08-24,31.64693,-101.90558,461-33167,"PIONEER NATURAL RES. USA, INC.","[836041] TARGA PL MID-CONT WESTTEX LLC; [250300] EL PASO NATURAL GAS COMPANY; [877060] UNION TEXAS PETROLEUM CORP.; [663680] PHILLIPS PETROLEUM COMPANY; [913450] WGR, INC.; [36586] ATLAS PL MID-CONT. WESTTEX, LLC; [877066] UNION TEXAS PRODUCTS CORPORATION",0.06,18,3,43.9,"Pioneer Natural Resources USA, Inc. (0.945)",Corpus Christi,1,0.945
CH4_1B2_250m_-101.87068_32.26034,39.01812238248736,204.85,4,2023-08-17,2023-08-24,32.26034,-101.87068,317-32478,DIAMONDBACK E&P LLC,"[102487] ETC GAS PROCESSING, LLC; [100224] WTG GAS PROCESSING, LLC; [8398] ADOBE RESOURCES CORPORATION; [945227] WTG GAS PROCESSING, L.P.; [748109] SANTA FE ENERGY RESOURCES, INC.; [500231] LG&E NATURAL G&P CO.; [693661] RAPTOR NATURAL G&P LLC; [8380] ADOBE OIL & GAS CORP.",0.24,2,1,54.9,Montage Resources Corporation (0.916),Sabine Pass,1,0.916
CH4_1B2_250m_-101.72924_31.76895,76.25364573982951,190.63,10,2021-10-16,2023-08-24,31.76895,-101.72924,173-37202,"CIVITAS PERMIAN OPERATING, LLC",[253368] ENTERPRISE PRODUCTS OPERATINGLLC,0.08,32,32,84.3,Enterprise Products Operating LLC (0.994),Freeport LNG,1,0.994
CH4_1B2_250m_-101.91041_31.86168,64.96752969492914,185.62,11,2020-07-15,2023-08-24,31.86168,-101.91041,329-40824,"PIONEER NATURAL RES. USA, INC.","[836041] TARGA PL MID-CONT WESTTEX LLC; [250300] EL PASO NATURAL GAS COMPANY; [913450] WGR, INC.; [148113] CHEVRON U. S. A. INC.; [844110] TEXACO INC.; [844118] TEXACO E & P INC.; [36586] ATLAS PL MID-CONT. WESTTEX, LLC",0.25,5,5,79.3,"Pioneer Natural Resources USA, Inc. (0.945); Chevron U.S.A. Inc (""Chevron"") (0.866)",Corpus Christi,2,0.945
CH4_NA_250m_-101.88984_32.02554,6.123695894142795,134.72,1,2023-08-24,2023-08-24,32.02554,-101.88984,329-42,"PIONEER NATURAL RES. USA, INC.","[911908] WESTERN GAS RESOURCES-TEXAS,INC.; [911907] WESTERN GAS RESOURCES TEXAS LLC; [836041] TARGA PL MID-CONT WESTTEX LLC",0.11,4,4,89.3,"Pioneer Natural Resources USA, Inc. (0.945)",Corpus Christi,1,0.945
CH4_NA_250m_-101.84477_31.94170,6.105759029924219,134.33,1,2023-08-24,2023-08-24,31.9417,-101.84477,329-43171,"PIONEER NATURAL RES. USA, INC.",[836041] TARGA PL MID-CONT WESTTEX LLC,0.07,9,8,82.7,"Pioneer Natural Resources USA, Inc. (0.945)",Corpus Christi,1,0.945
CH4_1B2_250m_-101.79348_31.95191,19.99830919687684,104.99,4,2023-08-17,2023-08-24,31.95191,-101.79348,329-31504,"PIONEER NATURAL RES. USA, INC.","[836041] TARGA PL MID-CONT WESTTEX LLC; [250300] EL PASO NATURAL GAS COMPANY; [829776] SUNRISE ENERGY COMPANY; [911905] WESTERN GAS PROCESSORS, LTD.; [913450] WGR, INC.; [36586] ATLAS PL MID-CONT. WESTTEX, LLC",0.5,1,1,65.0,"Pioneer Natural Resources USA, Inc. (0.945)",Corpus Christi,1,0.945
CH4_1B2_250m_-101.86159_31.92747,4.489732382910128,98.77,1,2023-08-24,2023-08-24,31.92747,-101.86159,329-35601,"PIONEER NATURAL RES. USA, INC.","[663680] PHILLIPS PETROLEUM COMPANY; [913450] WGR, INC.; [36586] ATLAS PL MID-CONT. WESTTEX, LLC; [836041] TARGA PL MID-CONT WESTTEX LLC; [250300] EL PASO NATURAL GAS COMPANY; [661637] PHILLIPS 66 NATURAL GAS COMPANY; [319471] GPM GAS CORPORATION",0.02,4,1,58.0,"Pioneer Natural Resources USA, Inc. (0.945)",Corpus Christi,1,0.945
CH4_NA_250m_-101.92084_31.86756,5.05973698277289,96.14,1,2023-08-24,2023-08-24,31.86756,-101.92084,329-34309,"PIONEER NATURAL RES. USA, INC.","[836041] TARGA PL MID-CONT WESTTEX LLC; [250300] EL PASO NATURAL GAS COMPANY; [911905] WESTERN GAS PROCESSORS, LTD.; [913450] WGR, INC.; [36586] ATLAS PL MID-CONT. WESTTEX, LLC",0.31,1,1,78.3,"Pioneer Natural Resources USA, Inc. (0.945)",Corpus Christi,1,0.945
CH4_NA_250m_-101.90447_32.24124,4.117959919898487,82.36,1,2023-08-24,2023-08-24,32.24124,-101.90447,317-41279,"PIONEER NATURAL RES. USA, INC.","[945218] WTG NORTH PERMIAN MIDSTREAM LLC; [945227] WTG GAS PROCESSING, L.P.; [102493] ETC NORTH PERMIAN MIDSTREAM LLC",0.29,5,5,76.7,"Pioneer Natural Resources USA, Inc. (0.945)",Corpus Christi,1,0.945
CH4_NA_250m_-101.79340_31.95192,1.5812788258934707,33.21,1,2023-08-24,2023-08-24,31.95192,-101.7934,329-31504,"PIONEER NATURAL RES. USA, INC.","[913450] WGR, INC.; [36586] ATLAS PL MID-CONT. WESTTEX, LLC; [836041] TARGA PL MID-CONT WESTTEX LLC; [250300] EL PASO NATURAL GAS COMPANY; [829776] SUNRISE ENERGY COMPANY; [911905] WESTERN GAS PROCESSORS, LTD.",0.51,1,1,65.0,"Pioneer Natural Resources USA, Inc. (0.945)",Corpus Christi,1,0.945
CH4_NA_250m_-101.77842_31.84400,1.1931697070275216,25.06,2,2023-08-24,2023-08-24,31.844,-101.77842,329-39108,"OXYROCK OPERATING, LLC","[663680] PHILLIPS PETROLEUM COMPANY; [195918] DCP MIDSTREAM, LP; [102545] ENTERPRISE M B MIDSTREAM LLC; [252017] ENERGY TRANSFER COMPANY; [601188] NAVITAS MDSTR MIDLAND BASIN, LLC; [836041] TARGA PL MID-CONT WESTTEX LLC; [661637] PHILLIPS 66 NATURAL GAS COMPANY; [319471] GPM GAS CORPORATION; [100348] ENT NAVITAS MDSTRM MDLND BAS LLC",0.3,3,3,76.3,Enterprise Products Operating LLC (0.86),Freeport LNG,1,0.86
CH4_1B2_250m_-101.91640_32.14362,NULL,NULL,1,2023-08-24,2023-08-24,32.14362,-101.9164,317-43175,"PIONEER NATURAL RES. USA, INC.","[102487] ETC GAS PROCESSING, LLC; [945227] WTG GAS PROCESSING, L.P.",0.23,14,14,73.9,"Pioneer Natural Resources USA, Inc. (0.945)",Corpus Christi,1,0.945
CH4_1B2_250m_-101.95234_32.14080,NULL,NULL,1,2023-08-24,2023-08-24,32.1408,-101.95234,317-33303,"PIONEER NATURAL RES. USA, INC.","[748109] SANTA FE ENERGY RESOURCES, INC.; [500231] LG&E NATURAL G&P CO.; [693661] RAPTOR NATURAL G&P LLC; [8380] ADOBE OIL & GAS CORP.; [8398] ADOBE RESOURCES CORPORATION; [945227] WTG GAS PROCESSING, L.P.",0.09,3,3,90.9,"Pioneer Natural Resources USA, Inc. (0.945); Montage Resources Corporation (0.916)",Sabine Pass; Corpus Christi,2,0.945
CH4_1B2_250m_-101.79809_31.79804,25.036381441265497,550.8,2,2023-08-21,2023-08-21,31.79804,-101.79809,329-37782,"PIONEER NATURAL RES. USA, INC.","[913450] WGR, INC.; [572390] MOBIL NATURAL GAS INC.; [36586] ATLAS PL MID-CONT. WESTTEX, LLC; [836041] TARGA PL MID-CONT WESTTEX LLC",0.05,3,3,93.7,"Pioneer Natural Resources USA, Inc. (0.945)",Corpus Christi,1,0.945
CH4_1B2_250m_-101.73248_31.77023,86.37890747052663,345.52,4,2021-08-08,2023-08-21,31.77023,-101.73248,173-37831,"CIVITAS PERMIAN OPERATING, LLC","[836041] TARGA PL MID-CONT WESTTEX LLC; [601188] NAVITAS MDSTR MIDLAND BASIN, LLC; [253368] ENTERPRISE PRODUCTS OPERATINGLLC; [100348] ENT NAVITAS MDSTRM MDLND BAS LLC",0.14,27,27,80.4,Enterprise Products Operating LLC (0.994),Freeport LNG,1,0.994
CH4_1B2_250m_-101.85226_31.92793,56.71298882363988,311.92,8,2021-10-08,2023-08-21,31.92793,-101.85226,329-31231,"PIONEER NATURAL RES. USA, INC.","[250300] EL PASO NATURAL GAS COMPANY; [661637] PHILLIPS 66 NATURAL GAS COMPANY; [319471] GPM GAS CORPORATION; [836041] TARGA PL MID-CONT WESTTEX LLC; [36586] ATLAS PL MID-CONT. WESTTEX, LLC; [663680] PHILLIPS PETROLEUM COMPANY; [913450] WGR, INC.",0.09,2,2,90.5,"Pioneer Natural Resources USA, Inc. (0.945)",Corpus Christi,1,0.945
CH4_1B2_250m_-101.87916_31.63246,50.54228666509775,222.39,5,2019-10-10,2023-08-21,31.63246,-101.87916,461-33387,"PIONEER NATURAL RES. USA, INC.","[250300] EL PASO NATURAL GAS COMPANY; [836041] TARGA PL MID-CONT WESTTEX LLC; [36586] ATLAS PL MID-CONT. WESTTEX, LLC; [877066] UNION TEXAS PRODUCTS CORPORATION; [877060] UNION TEXAS PETROLEUM CORP.; [663680] PHILLIPS PETROLEUM COMPANY; [913450] WGR, INC.",0.24,3,3,80.5,"Pioneer Natural Resources USA, Inc. (0.945)",Corpus Christi,1,0.945
CH4_1B2_250m_-101.81815_32.32175,12.26376579068635,208.48,1,2023-08-21,2023-08-21,32.32175,-101.81815,317-36620,"PIONEER NATURAL RES. USA, INC.","[945227] WTG GAS PROCESSING, L.P.; [102493] ETC NORTH PERMIAN MIDSTREAM LLC; [945218] WTG NORTH PERMIAN MIDSTREAM LLC",0.16,18,3,37.1,"Pioneer Natural Resources USA, Inc. (0.945)",Corpus Christi,1,0.945
CH4_1B2_250m_-101.81649_31.80304,23.75666120458799,174.22,7,2023-08-17,2023-08-21,31.80304,-101.81649,329-32849,"PIONEER NATURAL RES. USA, INC.","[250300] EL PASO NATURAL GAS COMPANY; [661637] PHILLIPS 66 NATURAL GAS COMPANY; [911905] WESTERN GAS PROCESSORS, LTD.; [836041] TARGA PL MID-CONT WESTTEX LLC; [36586] ATLAS PL MID-CONT. WESTTEX, LLC; [877066] UNION TEXAS PRODUCTS CORPORATION; [877060] UNION TEXAS PETROLEUM CORP.; [663680] PHILLIPS PETROLEUM COMPANY; [913450] WGR, INC.",0.48,1,1,66.1,"Pioneer Natural Resources USA, Inc. (0.945)",Corpus Christi,1,0.945
CH4_1B2_250m_-101.88992_32.02557,25.648819713392154,141.07,4,2023-08-17,2023-08-21,32.02557,-101.88992,329-42,"PIONEER NATURAL RES. USA, INC.","[911907] WESTERN GAS RESOURCES TEXAS LLC; [836041] TARGA PL MID-CONT WESTTEX LLC; [911908] WESTERN GAS RESOURCES-TEXAS,INC.",0.1,4,4,89.8,"Pioneer Natural Resources USA, Inc. (0.945)",Corpus Christi,1,0.945
CH4_1B2_250m_-101.77058_31.68008,9.853420123846972,98.53,2,2023-08-20,2023-08-21,31.68008,-101.77058,173-38768,"PIONEER NATURAL RES. USA, INC.",[836041] TARGA PL MID-CONT WESTTEX LLC,0.11,10,8,75.2,"Pioneer Natural Resources USA, Inc. (0.945)",Corpus Christi,1,0.945
CH4_1B2_250m_-101.75809_31.94710,3.6369523596003113,69.1,1,2023-08-21,2023-08-21,31.9471,-101.75809,173-38560,DIAMONDBACK E&P LLC,[253368] ENTERPRISE PRODUCTS OPERATINGLLC,0.04,11,11,87.2,Enterprise Products Operating LLC (0.994),Freeport LNG,1,0.994
CH4_1B2_250m_-101.84045_32.29593,5.705475129722706,51.35,2,2021-10-06,2023-08-21,32.29593,-101.84045,317-35016,"PIONEER NATURAL RES. USA, INC.","[945218] WTG NORTH PERMIAN MIDSTREAM LLC; [910285] WEST TEXAS GAS, INC.; [102493] ETC NORTH PERMIAN MIDSTREAM LLC",0.04,6,3,65.1,"Pioneer Natural Resources USA, Inc. (0.945)",Corpus Christi,1,0.945
CH4_1B2_250m_-101.92321_32.16133,2.3835802762126064,47.67,1,2023-08-21,2023-08-21,32.16133,-101.92321,317-35041,"PIONEER NATURAL RES. USA, INC.","[945218] WTG NORTH PERMIAN MIDSTREAM LLC; [748109] SANTA FE ENERGY RESOURCES, INC.; [8380] ADOBE OIL & GAS CORP.; [693663] RAPTOR NATURAL PLNS EGR SERV LLC; [8398] ADOBE RESOURCES CORPORATION; [500232] LG&E NATURAL PLNS EGR SERV INC.; [945227] WTG GAS PROCESSING, L.P.; [102493] ETC NORTH PERMIAN MIDSTREAM LLC",0.23,1,1,84.1,"Pioneer Natural Resources USA, Inc. (0.945); Montage Resources Corporation (0.916)",Corpus Christi; Sabine Pass,2,0.945
CH4_1B2_250m_-101.95735_32.35378,2.264241711570748,40.76,1,2023-08-21,2023-08-21,32.35378,-101.95735,317-40961,DIAMONDBACK E&P LLC,"[100348] ENT NAVITAS MDSTRM MDLND BAS LLC; [601188] NAVITAS MDSTR MIDLAND BASIN, LLC; [255104] ETC TEXAS P/L, LTD; [100883] ET GATHERING & PROCESSING LLC; [102545] ENTERPRISE M B MIDSTREAM LLC",0.08,37,37,84.3,Enterprise Products Operating LLC (0.86),Freeport LNG,1,0.86
CH4_1B2_250m_-101.84708_31.86017,NULL,NULL,1,2023-08-21,2023-08-21,31.86017,-101.84708,329-43128,DIAMONDBACK E&P LLC,"[601188] NAVITAS MDSTR MIDLAND BASIN, LLC; [253368] ENTERPRISE PRODUCTS OPERATINGLLC",0.07,11,11,85.3,Enterprise Products Operating LLC (0.994),Freeport LNG,1,0.994
CH4_1B2_250m_-102.08325_31.62049,290.67614427991646,2180.07,3,2023-08-19,2023-08-20,31.62049,-102.08325,461-33302,LEGACY RESERVES OPERATING LP,[148113] CHEVRON U. S. A. INC.; [844118] TEXACO E & P INC.,0.13,2,1,62.8,"Chevron U.S.A. Inc (""Chevron"") (0.866)",Corpus Christi,1,0.866
CH4_1B2_250m_-102.16215_31.70689,80.43164000523224,402.16,5,2023-08-15,2023-08-20,31.70689,-102.16215,329-34132,APACHE CORPORATION,[27200] APACHE CORPORATION; [40798] BP AMERICA PRODUCTION COMPANY; [29347] ARCO PERMIAN,0.11,12,12,82.4,Apache Corporation (1.0); Apache Corporation (1.0),CCL Stage III; Corpus Christi,1,1.0
CH4_1B2_250m_-101.76445_31.79642,118.37879926545338,394.6,10,2021-07-26,2023-08-20,31.79642,-101.76445,173-32298,"PIONEER NATURAL RES. USA, INC.","[36586] ATLAS PL MID-CONT. WESTTEX, LLC; [913450] WGR, INC.",0.15,5,4,76.8,"Pioneer Natural Resources USA, Inc. (0.945)",Corpus Christi,1,0.945
CH4_1B2_250m_-102.22707_31.76452,119.68835496991339,388.99,4,2023-08-15,2023-08-20,31.76452,-102.22707,329-31460,"PIONEER NATURAL RES. USA, INC.",[836033] TARGA MIDSTREAM SERVICES LP; [836037] TARGA MIDSTREAM SERVICES LLC,0.26,2,2,78.8,"Pioneer Natural Resources USA, Inc. (0.945)",Corpus Christi,1,0.945
CH4_1B2_250m_-101.93657_31.68510,16.199870594932808,186.3,2,2023-08-19,2023-08-20,31.6851,-101.93657,329-41366,XTO ENERGY INC.,[252017] ENERGY TRANSFER COMPANY,0.2,11,10,71.6,"XTO Energy Inc. (f/k/a Cross Timbers Energy Services, Inc.) (0.851)",Corpus Christi,1,0.851
CH4_1B2_250m_-101.96079_32.39724,8.231506657471781,156.4,1,2023-08-20,2023-08-20,32.39724,-101.96079,317-41155,DIAMONDBACK E&P LLC,"[628548] OUTRIGGER MIDLAND OPERATING, LLC; [836046] TARGA MIDLAND LLC",0.25,6,6,75.6,Targa Gas Marketing LLC (0.858),Corpus Christi,1,0.858
CH4_1B2_250m_-102.18623_31.63584,30.409621034103335,114.04,4,2023-08-15,2023-08-20,31.63584,-102.18623,461-34378,"DISCOVERY OPERATING, INC.",[27200] APACHE CORPORATION; [253368] ENTERPRISE PRODUCTS OPERATINGLLC; [100348] ENT NAVITAS MDSTRM MDLND BAS LLC; [40798] BP AMERICA PRODUCTION COMPANY; [148113] CHEVRON U. S. A. INC.,0.05,11,11,86.5,"Apache Corporation (1.0); Apache Corporation (1.0); Enterprise Products Operating LLC (0.994); Chevron U.S.A. Inc (""Chevron"") (0.866)",CCL Stage III; Corpus Christi; Freeport LNG,3,1.0
CH4_1B2_250m_-102.21399_31.69420,93.57880271428571,655.05,2,2019-10-10,2023-08-19,31.6942,-102.21399,329-36354,DIAMONDBACK E&P LLC,"[27200] APACHE CORPORATION; [601188] NAVITAS MDSTR MIDLAND BASIN, LLC; [40798] BP AMERICA PRODUCTION COMPANY; [102545] ENTERPRISE M B MIDSTREAM LLC",0.06,3,3,92.9,Apache Corporation (1.0); Apache Corporation (1.0); Enterprise Products Operating LLC (0.86),Corpus Christi; Freeport LNG; CCL Stage III,2,1.0
CH4_1B2_250m_-102.08124_31.79768,52.87995700199424,396.6,3,2021-08-08,2023-08-19,31.79768,-102.08124,329-33723,APACHE CORPORATION,[844118] TEXACO E & P INC.; [29347] ARCO PERMIAN; [148113] CHEVRON U. S. A. INC.,0.3,17,3,28.1,"Apache Corporation (1.0); Apache Corporation (1.0); Chevron U.S.A. Inc (""Chevron"") (0.866)",Corpus Christi; CCL Stage III,2,1.0
CH4_1B2_250m_-101.87139_31.88285,14.499506571297596,333.49,1,2023-08-19,2023-08-19,31.88285,-101.87139,329-32515,"PIONEER NATURAL RES. USA, INC.","[230719] DUKE ENERGY FIELD SERVICES, LP; [195959] DCP OPERATING COMPANY, LP; [195918] DCP MIDSTREAM, LP; [319471] GPM GAS CORPORATION; [319468] GPM GAS COMPANY, LLC; [661637] PHILLIPS 66 NATURAL GAS COMPANY",0.38,1,1,73.4,"Pioneer Natural Resources USA, Inc. (0.945)",Corpus Christi,1,0.945
CH4_1B2_250m_-101.84119_31.88670,28.726486270615897,315.99,2,2019-10-18,2023-08-19,31.8867,-101.84119,329-42624,DIAMONDBACK E&P LLC,"[100348] ENT NAVITAS MDSTRM MDLND BAS LLC; [601188] NAVITAS MDSTR MIDLAND BASIN, LLC; [253368] ENTERPRISE PRODUCTS OPERATINGLLC",0.21,18,18,75.3,Enterprise Products Operating LLC (0.994),Freeport LNG,1,0.994
CH4_1B2_250m_-101.95314_32.27556,28.459806637136353,284.6,3,2019-10-21,2023-08-19,32.27556,-101.95314,317-39942,DIAMONDBACK E&P LLC,"[319471] GPM GAS CORPORATION; [319468] GPM GAS COMPANY, LLC; [100348] ENT NAVITAS MDSTRM MDLND BAS LLC; [614485] NORTHERN GAS PRODUCTS CO.; [253195] ENRON GAS PROCESSING COMPANY; [601188] NAVITAS MDSTR MIDLAND BASIN, LLC; [230719] DUKE ENERGY FIELD SERVICES, LP; [195959] DCP OPERATING COMPANY, LP; [15135] ALPINE OIL COMPANY; [195918] DCP MIDSTREAM, LP; [102545] ENTERPRISE M B MIDSTREAM LLC",0.29,4,3,64.1,Enterprise Products Operating LLC (0.86),Freeport LNG,1,0.86
CH4_1B2_250m_-101.97518_31.82266,110.99719721653821,209.66,15,2019-10-10,2023-08-19,31.82266,-101.97518,329-30919,"PIONEER NATURAL RES. USA, INC.","[871118] TRISTAR ENERGY COMPANY; [36586] ATLAS PL MID-CONT. WESTTEX, LLC; [836044] TARGA PIPELINE MID-CONTINENT LLC; [17950] AMERICAN CENTRAL GAS COS. INC.; [913450] WGR, INC.; [250300] EL PASO NATURAL GAS COMPANY; [661637] PHILLIPS 66 NATURAL GAS COMPANY; [829776] SUNRISE ENERGY COMPANY; [302573] GGSI GAS CO.; [931770] WINDWARD ENERGY & MARKETING CO.; [8285] ADOBE GAS MARKETING CO.; [319471] GPM GAS CORPORATION",0.18,2,2,84.3,"Pioneer Natural Resources USA, Inc. (0.945)",Corpus Christi,1,0.945
CH4_1B2_250m_-102.16876_31.73257,33.376778390360656,166.88,6,2023-08-15,2023-08-19,31.73257,-102.16876,329-41451,APACHE CORPORATION,[27200] APACHE CORPORATION,0.18,5,5,84.2,Apache Corporation (1.0); Apache Corporation (1.0),Corpus Christi; CCL Stage III,1,1.0
CH4_1B2_250m_-102.13535_31.75274,21.396838960362256,99.85,3,2023-08-15,2023-08-19,31.75274,-102.13535,329-36840,OVINTIV USA INC.,"[252017] ENERGY TRANSFER COMPANY; [195918] DCP MIDSTREAM, LP; [148113] CHEVRON U. S. A. INC.; [36586] ATLAS PL MID-CONT. WESTTEX, LLC",0.24,6,5,67.8,"Chevron U.S.A. Inc (""Chevron"") (0.866)",Corpus Christi,1,0.866
CH4_1B2_250m_-102.06228_31.72394,18.32902429537254,91.65,4,2023-08-16,2023-08-19,31.72394,-102.06228,329-34042,OVINTIV USA INC.,"[230767] DUKE ENERGY FIELD SERVICES, INC.; [252017] ENERGY TRANSFER COMPANY; [195918] DCP MIDSTREAM, LP; [148113] CHEVRON U. S. A. INC.; [230721] DUKE ENERGY FLD SRVCS ASSETS LLC; [230719] DUKE ENERGY FIELD SERVICES, LP",0.26,12,1,25.9,"Chevron U.S.A. Inc (""Chevron"") (0.866)",Corpus Christi,1,0.866
CH4_1B2_250m_-102.19323_31.72487,9.770343674329775,73.28,2,2023-08-16,2023-08-19,31.72487,-102.19323,329-33871,APACHE CORPORATION,[40798] BP AMERICA PRODUCTION COMPANY; [29347] ARCO PERMIAN; [27200] APACHE CORPORATION,0.11,3,3,89.6,Apache Corporation (1.0); Apache Corporation (1.0),CCL Stage III; Corpus Christi,1,1.0
CH4_NA_250m_-101.81652_31.80303,2.073327673130107,45.61,2,2023-08-19,2023-08-19,31.80303,-101.81652,329-32849,"PIONEER NATURAL RES. USA, INC.","[836041] TARGA PL MID-CONT WESTTEX LLC; [250300] EL PASO NATURAL GAS COMPANY; [661637] PHILLIPS 66 NATURAL GAS COMPANY; [911905] WESTERN GAS PROCESSORS, LTD.; [877060] UNION TEXAS PETROLEUM CORP.; [663680] PHILLIPS PETROLEUM COMPANY; [913450] WGR, INC.; [36586] ATLAS PL MID-CONT. WESTTEX, LLC; [877066] UNION TEXAS PRODUCTS CORPORATION",0.48,1,1,66.2,"Pioneer Natural Resources USA, Inc. (0.945)",Corpus Christi,1,0.945
CH4_1B2_250m_-101.84305_32.00860,0.7577535319486528,16.67,1,2023-08-19,2023-08-19,32.0086,-101.84305,329-45860,"OXYROCK OPERATING, LLC",[836041] TARGA PL MID-CONT WESTTEX LLC; [100348] ENT NAVITAS MDSTRM MDLND BAS LLC; [102545] ENTERPRISE M B MIDSTREAM LLC,0.04,6,2,56.9,Enterprise Products Operating LLC (0.86),Freeport LNG,1,0.86
